$GNRMC,151503,A,5818.230209,N,05637.260132,E,,, 060325,,,A*42
$GNRMC,151504,A,5818.233185,N,05637.278442,E,,, 060325,,,A*4A
$GNRMC,151505,A,5818.237076,N,05637.295609,E,,, 060325,,,A*4C
$GNRMC,151506,A,5818.239365,N,05637.311172,E,,, 060325,,,A*46
$GNRMC,151507,A,5818.242340,N,05637.325592,E,,, 060325,,,A*41
$GNRMC,151508,A,5818.243713,N,05637.338409,E,,, 060325,,,A*42
$GNRMC,151509,A,5818.245544,N,05637.350311,E,,, 060325,,,A*45
$GNRMC,151510,A,5818.246689,N,05637.361526,E,,, 060325,,,A*4C
$GNRMC,151511,A,5818.246689,N,05637.372055,E,,, 060325,,,A*4E
$GNRMC,151512,A,5818.246689,N,05637.380753,E,,, 060325,,,A*41
$GNRMC,151513,A,5818.245544,N,05637.390137,E,,, 060325,,,A*44
$GNRMC,151514,A,5818.244400,N,05637.397919,E,,, 060325,,,A*40
$GNRMC,151515,A,5818.243027,N,05637.404556,E,,, 060325,,,A*4D
$GNRMC,151516,A,5818.241196,N,05637.410736,E,,, 060325,,,A*46
$GNRMC,151517,A,5818.239365,N,05637.415771,E,,, 060325,,,A*40
$GNRMC,151518,A,5818.237305,N,05637.419434,E,,, 060325,,,A*49
$GNRMC,151519,A,5818.235474,N,05637.423096,E,,, 060325,,,A*4E
$GNRMC,151520,A,5818.234100,N,05637.425613,E,,, 060325,,,A*4E
$GNRMC,151521,A,5818.233185,N,05637.426987,E,,, 060325,,,A*44
$GNRMC,151522,A,5818.232727,N,05637.427673,E,,, 060325,,,A*4D
$GNRMC,151523,A,5818.232040,N,05637.428589,E,,, 060325,,,A*43
$GNRMC,151524,A,5818.232040,N,05637.428589,E,,, 060325,,,A*44
$GNRMC,151525,A,5818.232040,N,05637.428589,E,,, 060325,,,A*45
$GNRMC,151526,A,5818.232040,N,05637.428589,E,,, 060325,,,A*46
$GNRMC,151527,A,5818.232040,N,05637.428589,E,,, 060325,,,A*47
$GNRMC,151528,A,5818.232040,N,05637.428589,E,,, 060325,,,A*48
$GNRMC,151529,A,5818.232040,N,05637.428589,E,,, 060325,,,A*49
$GNRMC,151530,A,5818.232040,N,05637.428589,E,,, 060325,,,A*41
$GNRMC,151531,A,5818.232040,N,05637.428589,E,,, 060325,,,A*40
$GNRMC,151532,A,5818.232040,N,05637.428589,E,,, 060325,,,A*43
$GNRMC,151533,A,5818.232040,N,05637.428589,E,,, 060325,,,A*42
$GNRMC,151534,A,5818.232040,N,05637.428589,E,,, 060325,,,A*45
$GNRMC,151535,A,5818.232040,N,05637.428589,E,,, 060325,,,A*44
$GNRMC,151536,A,5818.232040,N,05637.428589,E,,, 060325,,,A*47
$GNRMC,151537,A,5818.232040,N,05637.428589,E,,, 060325,,,A*46
$GNRMC,151538,A,5818.232040,N,05637.428589,E,,, 060325,,,A*49
$GNRMC,151539,A,5818.232040,N,05637.428589,E,,, 060325,,,A*48
$GNRMC,151540,A,5818.232040,N,05637.428589,E,,, 060325,,,A*46
$GNRMC,151541,A,5818.232040,N,05637.428589,E,,, 060325,,,A*47
$GNRMC,151542,A,5818.232040,N,05637.428589,E,,, 060325,,,A*44
$GNRMC,151543,A,5818.232040,N,05637.428589,E,,, 060325,,,A*45
$GNRMC,151544,A,5818.232040,N,05637.428589,E,,, 060325,,,A*42
$GNRMC,151545,A,5818.232040,N,05637.428589,E,,, 060325,,,A*43
$GNRMC,151546,A,5818.232040,N,05637.428589,E,,, 060325,,,A*40
$GNRMC,151547,A,5818.232040,N,05637.428589,E,,, 060325,,,A*41
$GNRMC,151548,A,5818.232040,N,05637.428589,E,,, 060325,,,A*4E
$GNRMC,151549,A,5818.232040,N,05637.428589,E,,, 060325,,,A*4F
$GNRMC,151550,A,5818.232040,N,05637.428589,E,,, 060325,,,A*47
$GNRMC,151551,A,5818.232040,N,05637.428589,E,,, 060325,,,A*46
$GNRMC,151552,A,5818.232040,N,05637.428589,E,,, 060325,,,A*45
$GNRMC,151553,A,5818.232040,N,05637.428589,E,,, 060325,,,A*44
$GNRMC,151554,A,5818.232040,N,05637.428589,E,,, 060325,,,A*43
$GNRMC,151555,A,5818.232040,N,05637.428589,E,,, 060325,,,A*42
$GNRMC,151556,A,5818.232040,N,05637.428589,E,,, 060325,,,A*41
$GNRMC,151557,A,5818.232040,N,05637.428589,E,,, 060325,,,A*40
$GNRMC,151558,A,5818.232040,N,05637.428589,E,,, 060325,,,A*4F
$GNRMC,151559,A,5818.232040,N,05637.428589,E,,, 060325,,,A*4E
$GNRMC,151600,A,5818.232040,N,05637.428589,E,,, 060325,,,A*41
$GNRMC,151601,A,5818.232040,N,05637.428589,E,,, 060325,,,A*40
$GNRMC,151602,A,5818.232040,N,05637.428589,E,,, 060325,,,A*43
$GNRMC,151603,A,5818.232040,N,05637.428589,E,,, 060325,,,A*42
$GNRMC,151604,A,5818.232040,N,05637.428589,E,,, 060325,,,A*45
$GNRMC,151605,A,5818.232040,N,05637.428589,E,,, 060325,,,A*44
$GNRMC,151606,A,5818.232040,N,05637.428589,E,,, 060325,,,A*47
$GNRMC,151607,A,5818.232040,N,05637.428589,E,,, 060325,,,A*46
$GNRMC,151608,A,5818.232040,N,05637.428589,E,,, 060325,,,A*49
$GNRMC,151609,A,5818.232040,N,05637.428589,E,,, 060325,,,A*48
$GNRMC,151610,A,5818.232040,N,05637.428589,E,,, 060325,,,A*40
$GNRMC,151611,A,5818.232040,N,05637.428589,E,,, 060325,,,A*41
$GNRMC,151612,A,5818.232040,N,05637.428589,E,,, 060325,,,A*42
$GNRMC,151613,A,5818.232040,N,05637.428589,E,,, 060325,,,A*43
$GNRMC,151614,A,5818.232040,N,05637.428589,E,,, 060325,,,A*44
$GNRMC,151615,A,5818.232040,N,05637.428589,E,,, 060325,,,A*45
$GNRMC,151616,A,5818.232040,N,05637.428589,E,,, 060325,,,A*46
$GNRMC,151617,A,5818.232040,N,05637.428589,E,,, 060325,,,A*47
$GNRMC,151618,A,5818.232040,N,05637.428589,E,,, 060325,,,A*48
$GNRMC,151619,A,5818.232040,N,05637.428589,E,,, 060325,,,A*49
$GNRMC,151620,A,5818.232040,N,05637.428589,E,,, 060325,,,A*43
$GNRMC,151621,A,5818.232040,N,05637.428589,E,,, 060325,,,A*42
$GNRMC,151622,A,5818.232040,N,05637.428589,E,,, 060325,,,A*41
$GNRMC,151623,A,5818.232040,N,05637.428589,E,,, 060325,,,A*40
$GNRMC,151624,A,5818.232040,N,05637.428589,E,,, 060325,,,A*47
$GNRMC,151625,A,5818.232040,N,05637.428589,E,,, 060325,,,A*46
$GNRMC,151626,A,5818.232040,N,05637.428589,E,,, 060325,,,A*45
$GNRMC,151627,A,5818.232040,N,05637.428589,E,,, 060325,,,A*44
$GNRMC,151628,A,5818.232040,N,05637.428589,E,,, 060325,,,A*4B
$GNRMC,151629,A,5818.232040,N,05637.428589,E,,, 060325,,,A*4A
$GNRMC,151630,A,5818.232040,N,05637.428589,E,,, 060325,,,A*42
$GNRMC,151631,A,5818.232040,N,05637.428589,E,,, 060325,,,A*43
$GNRMC,151632,A,5818.232040,N,05637.428589,E,,, 060325,,,A*40
$GNRMC,151633,A,5818.232040,N,05637.428589,E,,, 060325,,,A*41
$GNRMC,151634,A,5818.232040,N,05637.428589,E,,, 060325,,,A*46
$GNRMC,151635,A,5818.232040,N,05637.428589,E,,, 060325,,,A*47
$GNRMC,151636,A,5818.232040,N,05637.428589,E,,, 060325,,,A*44
$GNRMC,151637,A,5818.232040,N,05637.428589,E,,, 060325,,,A*45
$GNRMC,151638,A,5818.232040,N,05637.428589,E,,, 060325,,,A*4A
$GNRMC,151639,A,5818.232040,N,05637.428589,E,,, 060325,,,A*4B
$GNRMC,151640,A,5818.232040,N,05637.428589,E,,, 060325,,,A*45
$GNRMC,151641,A,5818.232040,N,05637.428589,E,,, 060325,,,A*44
$GNRMC,151642,A,5818.232040,N,05637.428589,E,,, 060325,,,A*47
$GNRMC,151643,A,5818.232040,N,05637.428589,E,,, 060325,,,A*46
$GNRMC,151644,A,5818.232040,N,05637.428589,E,,, 060325,,,A*41
$GNRMC,151645,A,5818.232040,N,05637.428589,E,,, 060325,,,A*40
$GNRMC,151646,A,5818.232040,N,05637.428589,E,,, 060325,,,A*43
$GNRMC,151647,A,5818.232040,N,05637.428589,E,,, 060325,,,A*42
$GNRMC,151648,A,5818.232040,N,05637.428589,E,,, 060325,,,A*4D
$GNRMC,151649,A,5818.232040,N,05637.428589,E,,, 060325,,,A*4C
$GNRMC,151650,A,5818.232040,N,05637.428589,E,,, 060325,,,A*44
$GNRMC,151651,A,5818.232040,N,05637.428589,E,,, 060325,,,A*45
$GNRMC,151652,A,5818.232040,N,05637.428589,E,,, 060325,,,A*46
$GNRMC,151653,A,5818.232040,N,05637.428589,E,,, 060325,,,A*47
$GNRMC,151654,A,5818.232040,N,05637.428589,E,,, 060325,,,A*40
$GNRMC,151655,A,5818.232040,N,05637.428589,E,,, 060325,,,A*41
$GNRMC,151656,A,5818.232040,N,05637.428589,E,,, 060325,,,A*42
$GNRMC,151657,A,5818.232040,N,05637.428589,E,,, 060325,,,A*43
$GNRMC,151658,A,5818.232040,N,05637.428589,E,,, 060325,,,A*4C
$GNRMC,151659,A,5818.232040,N,05637.428589,E,,, 060325,,,A*4D
$GNRMC,151700,A,5818.232040,N,05637.428589,E,,, 060325,,,A*40
$GNRMC,151701,A,5818.232040,N,05637.428589,E,,, 060325,,,A*41
$GNRMC,151702,A,5818.232040,N,05637.428589,E,,, 060325,,,A*42
$GNRMC,151703,A,5818.232040,N,05637.428589,E,,, 060325,,,A*43
$GNRMC,151704,A,5818.232040,N,05637.428589,E,,, 060325,,,A*44
$GNRMC,151705,A,5818.232040,N,05637.428589,E,,, 060325,,,A*45
$GNRMC,151706,A,5818.231583,N,05637.428818,E,,, 060325,,,A*4A
$GNRMC,151707,A,5818.231583,N,05637.429504,E,,, 060325,,,A*4A
$GNRMC,151708,A,5818.231125,N,05637.429962,E,,, 060325,,,A*41
$GNRMC,151709,A,5818.230209,N,05637.431107,E,,, 060325,,,A*4E
$GNRMC,151710,A,5818.229065,N,05637.432709,E,,, 060325,,,A*4D
$GNRMC,151711,A,5818.228378,N,05637.433395,E,,, 060325,,,A*42
$GNRMC,151712,A,5818.227463,N,05637.434540,E,,, 060325,,,A*4A
$GNRMC,151713,A,5818.226318,N,05637.436142,E,,, 060325,,,A*45
$GNRMC,151714,A,5818.225861,N,05637.437286,E,,, 060325,,,A*4E
$GNRMC,151715,A,5818.224487,N,05637.438660,E,,, 060325,,,A*49
$GNRMC,151716,A,5818.223114,N,05637.440491,E,,, 060325,,,A*41
$GNRMC,151717,A,5818.221054,N,05637.443008,E,,, 060325,,,A*40
$GNRMC,151718,A,5818.219223,N,05637.445984,E,,, 060325,,,A*4D
$GNRMC,151719,A,5818.216934,N,05637.449417,E,,, 060325,,,A*45
$GNRMC,151720,A,5818.214874,N,05637.454224,E,,, 060325,,,A*42
$GNRMC,151721,A,5818.213043,N,05637.459488,E,,, 060325,,,A*45
$GNRMC,151722,A,5818.212357,N,05637.464981,E,,, 060325,,,A*4B
$GNRMC,151723,A,5818.211899,N,05637.472305,E,,, 060325,,,A*41
$GNRMC,151724,A,5818.211899,N,05637.480316,E,,, 060325,,,A*49
$GNRMC,151725,A,5818.213043,N,05637.489243,E,,, 060325,,,A*4D
$GNRMC,151726,A,5818.215103,N,05637.498856,E,,, 060325,,,A*43
$GNRMC,151727,A,5818.217392,N,05637.508926,E,,, 060325,,,A*44
$GNRMC,151728,A,5818.220367,N,05637.520142,E,,, 060325,,,A*45
$GNRMC,151729,A,5818.223801,N,05637.532043,E,,, 060325,,,A*4F
$GNRMC,151730,A,5818.227921,N,05637.543945,E,,, 060325,,,A*49
$GNRMC,151731,A,5818.231583,N,05637.557678,E,,, 060325,,,A*4F
$GNRMC,151732,A,5818.235474,N,05637.571869,E,,, 060325,,,A*4B
$GNRMC,151733,A,5818.240280,N,05637.587433,E,,, 060325,,,A*4F
$GNRMC,151734,A,5818.244629,N,05637.602310,E,,, 060325,,,A*43
$GNRMC,151735,A,5818.249435,N,05637.618332,E,,, 060325,,,A*4B
$GNRMC,151736,A,5818.254242,N,05637.635498,E,,, 060325,,,A*4A
$GNRMC,151737,A,5818.258820,N,05637.652435,E,,, 060325,,,A*4F
$GNRMC,151738,A,5818.264313,N,05637.670517,E,,, 060325,,,A*45
$GNRMC,151739,A,5818.270035,N,05637.689285,E,,, 060325,,,A*4C
$GNRMC,151740,A,5818.274841,N,05637.708054,E,,, 060325,,,A*4B
$GNRMC,151741,A,5818.281021,N,05637.727509,E,,, 060325,,,A*4E
$GNRMC,151742,A,5818.286743,N,05637.747421,E,,, 060325,,,A*44
$GNRMC,151743,A,5818.292923,N,05637.768021,E,,, 060325,,,A*41
$GNRMC,151744,A,5818.298874,N,05637.788620,E,,, 060325,,,A*46
$GNRMC,151745,A,5818.304825,N,05637.809906,E,,, 060325,,,A*4A
$GNRMC,151746,A,5818.311234,N,05637.832336,E,,, 060325,,,A*46
$GNRMC,151747,A,5818.318100,N,05637.854538,E,,, 060325,,,A*42
$GNRMC,151748,A,5818.324966,N,05637.877884,E,,, 060325,,,A*41
$GNRMC,151749,A,5818.331375,N,05637.901230,E,,, 060325,,,A*49
$GNRMC,151750,A,5818.338242,N,05637.924805,E,,, 060325,,,A*46
$GNRMC,151751,A,5818.345337,N,05637.949066,E,,, 060325,,,A*48
$GNRMC,151752,A,5818.352203,N,05637.973099,E,,, 060325,,,A*42
$GNRMC,151753,A,5818.359070,N,05637.997131,E,,, 060325,,,A*47
$GNRMC,151754,A,5818.366394,N,05638.021164,E,,, 060325,,,A*4E
$GNRMC,151755,A,5818.373489,N,05638.045425,E,,, 060325,,,A*42
$GNRMC,151756,A,5818.380585,N,05638.070602,E,,, 060325,,,A*41
$GNRMC,151757,A,5818.387909,N,05638.095551,E,,, 060325,,,A*41
$GNRMC,151758,A,5818.395462,N,05638.120728,E,,, 060325,,,A*4E
$GNRMC,151759,A,5818.402557,N,05638.144760,E,,, 060325,,,A*4F
$GNRMC,151800,A,5818.409424,N,05638.169022,E,,, 060325,,,A*4C
$GNRMC,151801,A,5818.416061,N,05638.192368,E,,, 060325,,,A*4F
$GNRMC,151802,A,5818.422699,N,05638.214798,E,,, 060325,,,A*4C
$GNRMC,151803,A,5818.428879,N,05638.236084,E,,, 060325,,,A*4D
$GNRMC,151804,A,5818.434372,N,05638.257370,E,,, 060325,,,A*48
$GNRMC,151805,A,5818.440094,N,05638.277969,E,,, 060325,,,A*41
$GNRMC,151806,A,5818.445129,N,05638.298798,E,,, 060325,,,A*41
$GNRMC,151807,A,5818.449478,N,05638.319626,E,,, 060325,,,A*41
$GNRMC,151808,A,5818.453140,N,05638.340912,E,,, 060325,,,A*4F
$GNRMC,151809,A,5818.456116,N,05638.362885,E,,, 060325,,,A*47
$GNRMC,151810,A,5818.458176,N,05638.384857,E,,, 060325,,,A*40
$GNRMC,151811,A,5818.460007,N,05638.408203,E,,, 060325,,,A*45
$GNRMC,151812,A,5818.460236,N,05638.431549,E,,, 060325,,,A*45
$GNRMC,151813,A,5818.460236,N,05638.456268,E,,, 060325,,,A*41
$GNRMC,151814,A,5818.460236,N,05638.481903,E,,, 060325,,,A*4A
$GNRMC,151815,A,5818.460007,N,05638.507309,E,,, 060325,,,A*44
$GNRMC,151816,A,5818.459320,N,05638.534088,E,,, 060325,,,A*41
$GNRMC,151817,A,5818.459320,N,05638.560410,E,,, 060325,,,A*44
$GNRMC,151818,A,5818.459091,N,05638.587189,E,,, 060325,,,A*4E
$GNRMC,151819,A,5818.458405,N,05638.613739,E,,, 060325,,,A*44
$GNRMC,151820,A,5818.458176,N,05638.641663,E,,, 060325,,,A*46
$GNRMC,151821,A,5818.457947,N,05638.669128,E,,, 060325,,,A*40
$GNRMC,151822,A,5818.457260,N,05638.696823,E,,, 060325,,,A*4F
$GNRMC,151823,A,5818.457260,N,05638.724518,E,,, 060325,,,A*43
$GNRMC,151824,A,5818.457031,N,05638.752213,E,,, 060325,,,A*4F
$GNRMC,151825,A,5818.457031,N,05638.779907,E,,, 060325,,,A*49
$GNRMC,151826,A,5818.456345,N,05638.808517,E,,, 060325,,,A*4F
$GNRMC,151827,A,5818.456345,N,05638.836899,E,,, 060325,,,A*48
$GNRMC,151828,A,5818.456345,N,05638.865509,E,,, 060325,,,A*45
$GNRMC,151829,A,5818.456116,N,05638.894348,E,,, 060325,,,A*4D
$GNRMC,151830,A,5818.455658,N,05638.922958,E,,, 060325,,,A*4C
$GNRMC,151831,A,5818.455658,N,05638.951569,E,,, 060325,,,A*47
$GNRMC,151832,A,5818.455200,N,05638.981552,E,,, 060325,,,A*48
$GNRMC,151833,A,5818.455200,N,05639.010849,E,,, 060325,,,A*4E
$GNRMC,151834,A,5818.454514,N,05639.040604,E,,, 060325,,,A*48
$GNRMC,151835,A,5818.454514,N,05639.070358,E,,, 060325,,,A*46
$GNRMC,151836,A,5818.454056,N,05639.100113,E,,, 060325,,,A*4D
$GNRMC,151837,A,5818.454056,N,05639.129868,E,,, 060325,,,A*42
$GNRMC,151838,A,5818.453598,N,05639.159164,E,,, 060325,,,A*4F
$GNRMC,151839,A,5818.453140,N,05639.188919,E,,, 060325,,,A*41
$GNRMC,151840,A,5818.452911,N,05639.218674,E,,, 060325,,,A*4C
$GNRMC,151841,A,5818.452911,N,05639.248428,E,,, 060325,,,A*43
$GNRMC,151842,A,5818.452454,N,05639.278183,E,,, 060325,,,A*4B
$GNRMC,151843,A,5818.452454,N,05639.307709,E,,, 060325,,,A*47
$GNRMC,151844,A,5818.451996,N,05639.337234,E,,, 060325,,,A*48
$GNRMC,151845,A,5818.451996,N,05639.365845,E,,, 060325,,,A*42
$GNRMC,151846,A,5818.451538,N,05639.394684,E,,, 060325,,,A*44
$GNRMC,151847,A,5818.451538,N,05639.423294,E,,, 060325,,,A*4B
$GNRMC,151848,A,5818.451309,N,05639.450989,E,,, 060325,,,A*43
$GNRMC,151849,A,5818.451309,N,05639.478683,E,,, 060325,,,A*4D
$GNRMC,151850,A,5818.450851,N,05639.505234,E,,, 060325,,,A*41
$GNRMC,151851,A,5818.450394,N,05639.530869,E,,, 060325,,,A*46
$GNRMC,151852,A,5818.449936,N,05639.554443,E,,, 060325,,,A*49
$GNRMC,151853,A,5818.449478,N,05639.576874,E,,, 060325,,,A*47
$GNRMC,151854,A,5818.448334,N,05639.599304,E,,, 060325,,,A*43
$GNRMC,151855,A,5818.447418,N,05639.620590,E,,, 060325,,,A*4E
$GNRMC,151856,A,5818.446045,N,05639.640732,E,,, 060325,,,A*4C
$GNRMC,151857,A,5818.443298,N,05639.661102,E,,, 060325,,,A*4C
$GNRMC,151858,A,5818.441010,N,05639.681702,E,,, 060325,,,A*4B
$GNRMC,151859,A,5818.437119,N,05639.702301,E,,, 060325,,,A*4E
$GNRMC,151900,A,5818.433228,N,05639.721985,E,,, 060325,,,A*41
$GNRMC,151901,A,5818.427963,N,05639.742126,E,,, 060325,,,A*45
$GNRMC,151902,A,5818.422012,N,05639.762039,E,,, 060325,,,A*41
$GNRMC,151903,A,5818.416061,N,05639.781952,E,,, 060325,,,A*4A
$GNRMC,151904,A,5818.408737,N,05639.802780,E,,, 060325,,,A*43
$GNRMC,151905,A,5818.401184,N,05639.822922,E,,, 060325,,,A*41
$GNRMC,151906,A,5818.392944,N,05639.843063,E,,, 060325,,,A*40
$GNRMC,151907,A,5818.383789,N,05639.862518,E,,, 060325,,,A*44
$GNRMC,151908,A,5818.374863,N,05639.882660,E,,, 060325,,,A*4A
$GNRMC,151909,A,5818.365479,N,05639.902115,E,,, 060325,,,A*40
$GNRMC,151910,A,5818.356094,N,05639.922485,E,,, 060325,,,A*41
$GNRMC,151911,A,5818.346024,N,05639.942627,E,,, 060325,,,A*46
$GNRMC,151912,A,5818.335495,N,05639.963684,E,,, 060325,,,A*45
$GNRMC,151913,A,5818.325424,N,05639.984283,E,,, 060325,,,A*45
$GNRMC,151914,A,5818.314896,N,05640.004883,E,,, 060325,,,A*40
$GNRMC,151915,A,5818.304138,N,05640.026627,E,,, 060325,,,A*4D
$GNRMC,151916,A,5818.292923,N,05640.047913,E,,, 060325,,,A*4D
$GNRMC,151917,A,5818.281937,N,05640.069885,E,,, 060325,,,A*49
$GNRMC,151918,A,5818.271408,N,05640.091171,E,,, 060325,,,A*4D
$GNRMC,151919,A,5818.260422,N,05640.112457,E,,, 060325,,,A*4F
$GNRMC,151920,A,5818.249435,N,05640.133286,E,,, 060325,,,A*41
$GNRMC,151921,A,5818.239365,N,05640.153885,E,,, 060325,,,A*4A
$GNRMC,151922,A,5818.228607,N,05640.174255,E,,, 060325,,,A*4A
$GNRMC,151923,A,5818.218994,N,05640.194168,E,,, 060325,,,A*4E
$GNRMC,151924,A,5818.208466,N,05640.214310,E,,, 060325,,,A*4E
$GNRMC,151925,A,5818.198853,N,05640.233994,E,,, 060325,,,A*4C
$GNRMC,151926,A,5818.188553,N,05640.253677,E,,, 060325,,,A*47
$GNRMC,151927,A,5818.178253,N,05640.273361,E,,, 060325,,,A*4E
$GNRMC,151928,A,5818.167953,N,05640.292816,E,,, 060325,,,A*40
$GNRMC,151929,A,5818.157654,N,05640.312958,E,,, 060325,,,A*48
$GNRMC,151930,A,5818.147583,N,05640.332642,E,,, 060325,,,A*4E
$GNRMC,151931,A,5818.137741,N,05640.352554,E,,, 060325,,,A*46
$GNRMC,151932,A,5818.127441,N,05640.372238,E,,, 060325,,,A*48
$GNRMC,151933,A,5818.117599,N,05640.392380,E,,, 060325,,,A*42
$GNRMC,151934,A,5818.107300,N,05640.412292,E,,, 060325,,,A*4F
$GNRMC,151935,A,5818.097229,N,05640.432205,E,,, 060325,,,A*40
$GNRMC,151936,A,5818.087845,N,05640.451431,E,,, 060325,,,A*46
$GNRMC,151937,A,5818.078003,N,05640.470886,E,,, 060325,,,A*4E
$GNRMC,151938,A,5818.068619,N,05640.490112,E,,, 060325,,,A*47
$GNRMC,151939,A,5818.059464,N,05640.510025,E,,, 060325,,,A*40
$GNRMC,151940,A,5818.049850,N,05640.530167,E,,, 060325,,,A*41
$GNRMC,151941,A,5818.040924,N,05640.550308,E,,, 060325,,,A*46
$GNRMC,151942,A,5818.032455,N,05640.569992,E,,, 060325,,,A*48
$GNRMC,151943,A,5818.023758,N,05640.589905,E,,, 060325,,,A*47
$GNRMC,151944,A,5818.015518,N,05640.609589,E,,, 060325,,,A*40
$GNRMC,151945,A,5818.007050,N,05640.630875,E,,, 060325,,,A*4F
$GNRMC,151946,A,5817.999268,N,05640.651703,E,,, 060325,,,A*4D
$GNRMC,151947,A,5817.990570,N,05640.672989,E,,, 060325,,,A*46
$GNRMC,151948,A,5817.982101,N,05640.694504,E,,, 060325,,,A*49
$GNRMC,151949,A,5817.974091,N,05640.715790,E,,, 060325,,,A*4E
$GNRMC,151950,A,5817.966080,N,05640.737305,E,,, 060325,,,A*4D
$GNRMC,151951,A,5817.957153,N,05640.758591,E,,, 060325,,,A*43
$GNRMC,151952,A,5817.949142,N,05640.779877,E,,, 060325,,,A*49
$GNRMC,151953,A,5817.941589,N,05640.800476,E,,, 060325,,,A*4F
$GNRMC,151954,A,5817.933350,N,05640.821075,E,,, 060325,,,A*4B
$GNRMC,151955,A,5817.924881,N,05640.841675,E,,, 060325,,,A*4B
$GNRMC,151956,A,5817.917328,N,05640.862274,E,,, 060325,,,A*44
$GNRMC,151957,A,5817.909088,N,05640.882645,E,,, 060325,,,A*4B
$GNRMC,151958,A,5817.901306,N,05640.903473,E,,, 060325,,,A*46
$GNRMC,151959,A,5817.893066,N,05640.924988,E,,, 060325,,,A*44
$GNRMC,152000,A,5817.885056,N,05640.946503,E,,, 060325,,,A*4D
$GNRMC,152001,A,5817.876587,N,05640.967789,E,,, 060325,,,A*4A
$GNRMC,152002,A,5817.867432,N,05640.989990,E,,, 060325,,,A*40
$GNRMC,152003,A,5817.858963,N,05641.012192,E,,, 060325,,,A*44
$GNRMC,152004,A,5817.850266,N,05641.033936,E,,, 060325,,,A*40
$GNRMC,152005,A,5817.841339,N,05641.056137,E,,, 060325,,,A*40
$GNRMC,152006,A,5817.832870,N,05641.077881,E,,, 060325,,,A*46
$GNRMC,152007,A,5817.823715,N,05641.099625,E,,, 060325,,,A*4B
$GNRMC,152008,A,5817.814560,N,05641.120911,E,,, 060325,,,A*4B
$GNRMC,152009,A,5817.805405,N,05641.141052,E,,, 060325,,,A*41
$GNRMC,152010,A,5817.795563,N,05641.160736,E,,, 060325,,,A*48
$GNRMC,152011,A,5817.786865,N,05641.179733,E,,, 060325,,,A*4D
$GNRMC,152012,A,5817.777939,N,05641.198273,E,,, 060325,,,A*46
$GNRMC,152013,A,5817.769012,N,05641.216354,E,,, 060325,,,A*49
$GNRMC,152014,A,5817.759857,N,05641.234207,E,,, 060325,,,A*43
$GNRMC,152015,A,5817.751160,N,05641.251144,E,,, 060325,,,A*40
$GNRMC,152016,A,5817.742691,N,05641.267624,E,,, 060325,,,A*4C
$GNRMC,152017,A,5817.733994,N,05641.284561,E,,, 060325,,,A*4E
$GNRMC,152018,A,5817.725067,N,05641.300583,E,,, 060325,,,A*42
$GNRMC,152019,A,5817.716599,N,05641.316376,E,,, 060325,,,A*4C
$GNRMC,152020,A,5817.707901,N,05641.331711,E,,, 060325,,,A*4B
$GNRMC,152021,A,5817.698746,N,05641.347961,E,,, 060325,,,A*48
$GNRMC,152022,A,5817.689819,N,05641.364212,E,,, 060325,,,A*40
$GNRMC,152023,A,5817.680664,N,05641.381149,E,,, 060325,,,A*4A
$GNRMC,152024,A,5817.671280,N,05641.398315,E,,, 060325,,,A*4E
$GNRMC,152025,A,5817.661438,N,05641.415710,E,,, 060325,,,A*48
$GNRMC,152026,A,5817.651596,N,05641.432877,E,,, 060325,,,A*46
$GNRMC,152027,A,5817.641296,N,05641.451645,E,,, 060325,,,A*4B
$GNRMC,152028,A,5817.630768,N,05641.470184,E,,, 060325,,,A*4F
$GNRMC,152029,A,5817.620010,N,05641.489868,E,,, 060325,,,A*4A
$GNRMC,152030,A,5817.609940,N,05641.508408,E,,, 060325,,,A*47
$GNRMC,152031,A,5817.598724,N,05641.528320,E,,, 060325,,,A*4E
$GNRMC,152032,A,5817.588654,N,05641.547089,E,,, 060325,,,A*43
$GNRMC,152033,A,5817.577896,N,05641.566315,E,,, 060325,,,A*47
$GNRMC,152034,A,5817.568283,N,05641.584396,E,,, 060325,,,A*47
$GNRMC,152035,A,5817.557755,N,05641.603165,E,,, 060325,,,A*46
$GNRMC,152036,A,5817.548141,N,05641.621017,E,,, 060325,,,A*4C
$GNRMC,152037,A,5817.538986,N,05641.638641,E,,, 060325,,,A*44
$GNRMC,152038,A,5817.530060,N,05641.656494,E,,, 060325,,,A*40
$GNRMC,152039,A,5817.521362,N,05641.674805,E,,, 060325,,,A*44
$GNRMC,152040,A,5817.513809,N,05641.692657,E,,, 060325,,,A*4C
$GNRMC,152041,A,5817.505798,N,05641.711197,E,,, 060325,,,A*4C
$GNRMC,152042,A,5817.498932,N,05641.728821,E,,, 060325,,,A*4A
$GNRMC,152043,A,5817.491608,N,05641.747131,E,,, 060325,,,A*45
$GNRMC,152044,A,5817.484970,N,05641.765671,E,,, 060325,,,A*45
$GNRMC,152045,A,5817.478790,N,05641.784439,E,,, 060325,,,A*46
$GNRMC,152046,A,5817.472610,N,05641.803894,E,,, 060325,,,A*4D
$GNRMC,152047,A,5817.466888,N,05641.823807,E,,, 060325,,,A*4E
$GNRMC,152048,A,5817.461624,N,05641.843948,E,,, 060325,,,A*42
$GNRMC,152049,A,5817.456589,N,05641.864548,E,,, 060325,,,A*4A
$GNRMC,152050,A,5817.452469,N,05641.884918,E,,, 060325,,,A*4E
$GNRMC,152051,A,5817.447662,N,05641.906891,E,,, 060325,,,A*49
$GNRMC,152052,A,5817.443085,N,05641.929321,E,,, 060325,,,A*4C
$GNRMC,152053,A,5817.439194,N,05641.951294,E,,, 060325,,,A*41
$GNRMC,152054,A,5817.435303,N,05641.974640,E,,, 060325,,,A*4C
$GNRMC,152055,A,5817.432098,N,05641.999359,E,,, 060325,,,A*45
$GNRMC,152056,A,5817.428207,N,05642.024307,E,,, 060325,,,A*4E
$GNRMC,152057,A,5817.425003,N,05642.049942,E,,, 060325,,,A*44
$GNRMC,152058,A,5817.421570,N,05642.075577,E,,, 060325,,,A*4B
$GNRMC,152059,A,5817.418137,N,05642.102585,E,,, 060325,,,A*4B
$GNRMC,152100,A,5817.414246,N,05642.130280,E,,, 060325,,,A*4C
$GNRMC,152101,A,5817.410812,N,05642.157974,E,,, 060325,,,A*43
$GNRMC,152102,A,5817.406464,N,05642.186813,E,,, 060325,,,A*46
$GNRMC,152103,A,5817.403030,N,05642.215652,E,,, 060325,,,A*45
$GNRMC,152104,A,5817.399139,N,05642.244492,E,,, 060325,,,A*44
$GNRMC,152105,A,5817.395477,N,05642.273331,E,,, 060325,,,A*4C
$GNRMC,152106,A,5817.391815,N,05642.301025,E,,, 060325,,,A*41
$GNRMC,152107,A,5817.388611,N,05642.327805,E,,, 060325,,,A*4C
$GNRMC,152108,A,5817.385178,N,05642.353897,E,,, 060325,,,A*4E
$GNRMC,152109,A,5817.381973,N,05642.379532,E,,, 060325,,,A*42
$GNRMC,152110,A,5817.378769,N,05642.404251,E,,, 060325,,,A*46
$GNRMC,152111,A,5817.375793,N,05642.428970,E,,, 060325,,,A*49
$GNRMC,152112,A,5817.372589,N,05642.454147,E,,, 060325,,,A*43
$GNRMC,152113,A,5817.369843,N,05642.477951,E,,, 060325,,,A*4D
$GNRMC,152114,A,5817.366638,N,05642.502213,E,,, 060325,,,A*49
$GNRMC,152115,A,5817.363663,N,05642.524872,E,,, 060325,,,A*4A
$GNRMC,152116,A,5817.360458,N,05642.547531,E,,, 060325,,,A*4F
$GNRMC,152117,A,5817.357025,N,05642.569962,E,,, 060325,,,A*42
$GNRMC,152118,A,5817.353821,N,05642.592621,E,,, 060325,,,A*49
$GNRMC,152119,A,5817.349701,N,05642.615051,E,,, 060325,,,A*43
$GNRMC,152120,A,5817.345810,N,05642.637482,E,,, 060325,,,A*40
$GNRMC,152121,A,5817.342377,N,05642.660141,E,,, 060325,,,A*44
$GNRMC,152122,A,5817.338257,N,05642.682343,E,,, 060325,,,A*45
$GNRMC,152123,A,5817.334137,N,05642.704315,E,,, 060325,,,A*41
$GNRMC,152124,A,5817.329559,N,05642.726059,E,,, 060325,,,A*4D
$GNRMC,152125,A,5817.324295,N,05642.747803,E,,, 060325,,,A*46
$GNRMC,152126,A,5817.319717,N,05642.769318,E,,, 060325,,,A*49
$GNRMC,152127,A,5817.313995,N,05642.791748,E,,, 060325,,,A*40
$GNRMC,152128,A,5817.308502,N,05642.814178,E,,, 060325,,,A*40
$GNRMC,152129,A,5817.303238,N,05642.837067,E,,, 060325,,,A*4A
$GNRMC,152130,A,5817.297287,N,05642.860413,E,,, 060325,,,A*4F
$GNRMC,152131,A,5817.292023,N,05642.883301,E,,, 060325,,,A*4E
$GNRMC,152132,A,5817.285843,N,05642.906418,E,,, 060325,,,A*46
$GNRMC,152133,A,5817.280350,N,05642.928848,E,,, 060325,,,A*4E
$GNRMC,152134,A,5817.274628,N,05642.951050,E,,, 060325,,,A*47
$GNRMC,152135,A,5817.269135,N,05642.973022,E,,, 060325,,,A*44
$GNRMC,152136,A,5817.264328,N,05642.995911,E,,, 060325,,,A*45
$GNRMC,152137,A,5817.259521,N,05643.018570,E,,, 060325,,,A*43
$GNRMC,152138,A,5817.254715,N,05643.041229,E,,, 060325,,,A*43
$GNRMC,152139,A,5817.249908,N,05643.064117,E,,, 060325,,,A*45
$GNRMC,152140,A,5817.245560,N,05643.087006,E,,, 060325,,,A*49
$GNRMC,152141,A,5817.241440,N,05643.110352,E,,, 060325,,,A*42
$GNRMC,152142,A,5817.236862,N,05643.133698,E,,, 060325,,,A*4F
$GNRMC,152143,A,5817.232742,N,05643.157043,E,,, 060325,,,A*45
$GNRMC,152144,A,5817.229309,N,05643.180389,E,,, 060325,,,A*4C
$GNRMC,152145,A,5817.226334,N,05643.204193,E,,, 060325,,,A*4A
$GNRMC,152146,A,5817.223358,N,05643.227997,E,,, 060325,,,A*4B
$GNRMC,152147,A,5817.220612,N,05643.252487,E,,, 060325,,,A*4C
$GNRMC,152148,A,5817.218552,N,05643.276749,E,,, 060325,,,A*48
$GNRMC,152149,A,5817.216492,N,05643.301468,E,,, 060325,,,A*4B
$GNRMC,152150,A,5817.215347,N,05643.327103,E,,, 060325,,,A*43
$GNRMC,152151,A,5817.213516,N,05643.353653,E,,, 060325,,,A*47
$GNRMC,152152,A,5817.212601,N,05643.380203,E,,, 060325,,,A*4F
$GNRMC,152153,A,5817.212372,N,05643.407898,E,,, 060325,,,A*4F
$GNRMC,152154,A,5817.211456,N,05643.436279,E,,, 060325,,,A*4D
$GNRMC,152155,A,5817.211456,N,05643.465118,E,,, 060325,,,A*4E
$GNRMC,152156,A,5817.211227,N,05643.494644,E,,, 060325,,,A*4D
$GNRMC,152157,A,5817.211456,N,05643.524170,E,,, 060325,,,A*46
$GNRMC,152158,A,5817.211456,N,05643.554153,E,,, 060325,,,A*4F
$GNRMC,152159,A,5817.211456,N,05643.583679,E,,, 060325,,,A*4B
$GNRMC,152200,A,5817.211456,N,05643.613434,E,,, 060325,,,A*45
$GNRMC,152201,A,5817.211456,N,05643.643188,E,,, 060325,,,A*43
$GNRMC,152202,A,5817.211456,N,05643.672714,E,,, 060325,,,A*41
$GNRMC,152203,A,5817.211685,N,05643.702240,E,,, 060325,,,A*4E
$GNRMC,152204,A,5817.212372,N,05643.731995,E,,, 060325,,,A*44
$GNRMC,152205,A,5817.212372,N,05643.760605,E,,, 060325,,,A*47
$GNRMC,152206,A,5817.213287,N,05643.789444,E,,, 060325,,,A*4E
$GNRMC,152207,A,5817.214203,N,05643.817139,E,,, 060325,,,A*43
$GNRMC,152208,A,5817.215347,N,05643.844147,E,,, 060325,,,A*43
$GNRMC,152209,A,5817.216721,N,05643.870697,E,,, 060325,,,A*48
$GNRMC,152210,A,5817.219467,N,05643.897018,E,,, 060325,,,A*46
$GNRMC,152211,A,5817.222672,N,05643.921738,E,,, 060325,,,A*40
$GNRMC,152212,A,5817.226334,N,05643.946457,E,,, 060325,,,A*4B
$GNRMC,152213,A,5817.230682,N,05643.970718,E,,, 060325,,,A*48
$GNRMC,152214,A,5817.234802,N,05643.993607,E,,, 060325,,,A*4F
$GNRMC,152215,A,5817.240295,N,05644.016037,E,,, 060325,,,A*4F
$GNRMC,152216,A,5817.245789,N,05644.038239,E,,, 060325,,,A*41
$GNRMC,152217,A,5817.251968,N,05644.060898,E,,, 060325,,,A*48
$GNRMC,152218,A,5817.258606,N,05644.083099,E,,, 060325,,,A*4D
$GNRMC,152219,A,5817.265930,N,05644.105759,E,,, 060325,,,A*4C
$GNRMC,152220,A,5817.274170,N,05644.128189,E,,, 060325,,,A*4E
$GNRMC,152221,A,5817.282867,N,05644.151077,E,,, 060325,,,A*47
$GNRMC,152222,A,5817.292252,N,05644.173279,E,,, 060325,,,A*45
$GNRMC,152223,A,5817.301636,N,05644.195023,E,,, 060325,,,A*4C
$GNRMC,152224,A,5817.312622,N,05644.216537,E,,, 060325,,,A*44
$GNRMC,152225,A,5817.323608,N,05644.237366,E,,, 060325,,,A*4E
$GNRMC,152226,A,5817.335739,N,05644.257965,E,,, 060325,,,A*46
$GNRMC,152227,A,5817.347641,N,05644.278564,E,,, 060325,,,A*4C
$GNRMC,152228,A,5817.359772,N,05644.299850,E,,, 060325,,,A*48
$GNRMC,152229,A,5817.371674,N,05644.320450,E,,, 060325,,,A*4B
$GNRMC,152230,A,5817.383118,N,05644.338989,E,,, 060325,,,A*43
$GNRMC,152231,A,5817.394791,N,05644.358215,E,,, 060325,,,A*4B
$GNRMC,152232,A,5817.405777,N,05644.377213,E,,, 060325,,,A*44
$GNRMC,152233,A,5817.416992,N,05644.395523,E,,, 060325,,,A*4A
$GNRMC,152234,A,5817.427979,N,05644.414749,E,,, 060325,,,A*4A
$GNRMC,152235,A,5817.439194,N,05644.433975,E,,, 060325,,,A*4B
$GNRMC,152236,A,5817.450180,N,05644.453430,E,,, 060325,,,A*48
$GNRMC,152237,A,5817.461624,N,05644.473114,E,,, 060325,,,A*43
$GNRMC,152238,A,5817.473526,N,05644.492340,E,,, 060325,,,A*42
$GNRMC,152239,A,5817.485199,N,05644.511795,E,,, 060325,,,A*4C
$GNRMC,152240,A,5817.497101,N,05644.531021,E,,, 060325,,,A*4A
$GNRMC,152241,A,5817.509003,N,05644.550476,E,,, 060325,,,A*4F
$GNRMC,152242,A,5817.520218,N,05644.569473,E,,, 060325,,,A*40
$GNRMC,152243,A,5817.531433,N,05644.588242,E,,, 060325,,,A*45
$GNRMC,152244,A,5817.543106,N,05644.607468,E,,, 060325,,,A*4E
$GNRMC,152245,A,5817.553406,N,05644.625778,E,,, 060325,,,A*49
$GNRMC,152246,A,5817.564392,N,05644.644089,E,,, 060325,,,A*4A
$GNRMC,152247,A,5817.575378,N,05644.662170,E,,, 060325,,,A*4C
$GNRMC,152248,A,5817.585907,N,05644.680481,E,,, 060325,,,A*49
$GNRMC,152249,A,5817.596664,N,05644.698105,E,,, 060325,,,A*40
$GNRMC,152250,A,5817.607880,N,05644.716415,E,,, 060325,,,A*44
$GNRMC,152251,A,5817.618866,N,05644.734497,E,,, 060325,,,A*49
$GNRMC,152252,A,5817.629166,N,05644.752808,E,,, 060325,,,A*4B
$GNRMC,152253,A,5817.640381,N,05644.771805,E,,, 060325,,,A*42
$GNRMC,152254,A,5817.652054,N,05644.790344,E,,, 060325,,,A*4C
$GNRMC,152255,A,5817.662582,N,05644.808884,E,,, 060325,,,A*49
$GNRMC,152256,A,5817.673798,N,05644.827194,E,,, 060325,,,A*46
$GNRMC,152257,A,5817.684784,N,05644.845505,E,,, 060325,,,A*4A
$GNRMC,152258,A,5817.695541,N,05644.863586,E,,, 060325,,,A*41
$GNRMC,152259,A,5817.706985,N,05644.882584,E,,, 060325,,,A*42
$GNRMC,152300,A,5817.718658,N,05644.901352,E,,, 060325,,,A*48
$GNRMC,152301,A,5817.729645,N,05644.920120,E,,, 060325,,,A*43
$GNRMC,152302,A,5817.741089,N,05644.939117,E,,, 060325,,,A*44
$GNRMC,152303,A,5817.752075,N,05644.957199,E,,, 060325,,,A*4A
$GNRMC,152304,A,5817.761459,N,05644.973450,E,,, 060325,,,A*41
$GNRMC,152305,A,5817.771072,N,05644.988098,E,,, 060325,,,A*48
$GNRMC,152306,A,5817.778625,N,05645.001373,E,,, 060325,,,A*49
$GNRMC,152307,A,5817.785492,N,05645.013275,E,,, 060325,,,A*40
$GNRMC,152308,A,5817.793274,N,05645.023804,E,,, 060325,,,A*49
$GNRMC,152309,A,5817.799225,N,05645.034561,E,,, 060325,,,A*4E
$GNRMC,152310,A,5817.805405,N,05645.044861,E,,, 060325,,,A*42
$GNRMC,152311,A,5817.810898,N,05645.054245,E,,, 060325,,,A*42
$GNRMC,152312,A,5817.816391,N,05645.062943,E,,, 060325,,,A*4D
$GNRMC,152313,A,5817.820969,N,05645.070953,E,,, 060325,,,A*46
$GNRMC,152314,A,5817.824860,N,05645.077820,E,,, 060325,,,A*4F
$GNRMC,152315,A,5817.828751,N,05645.083771,E,,, 060325,,,A*4F
$GNRMC,152316,A,5817.831955,N,05645.089493,E,,, 060325,,,A*4B
$GNRMC,152317,A,5817.834473,N,05645.094757,E,,, 060325,,,A*41
$GNRMC,152318,A,5817.836990,N,05645.099564,E,,, 060325,,,A*43
$GNRMC,152319,A,5817.839279,N,05645.103912,E,,, 060325,,,A*4E
$GNRMC,152320,A,5817.841797,N,05645.108032,E,,, 060325,,,A*4E
$GNRMC,152321,A,5817.843857,N,05645.112381,E,,, 060325,,,A*4E
$GNRMC,152322,A,5817.847061,N,05645.116501,E,,, 060325,,,A*4E
$GNRMC,152323,A,5817.851181,N,05645.121536,E,,, 060325,,,A*47
$GNRMC,152324,A,5817.855301,N,05645.127487,E,,, 060325,,,A*43
$GNRMC,152325,A,5817.860107,N,05645.134354,E,,, 060325,,,A*4B
$GNRMC,152326,A,5817.865372,N,05645.142822,E,,, 060325,,,A*46
$GNRMC,152327,A,5817.871323,N,05645.152435,E,,, 060325,,,A*4D
$GNRMC,152328,A,5817.877502,N,05645.162277,E,,, 060325,,,A*42
$GNRMC,152329,A,5817.884140,N,05645.173950,E,,, 060325,,,A*43
$GNRMC,152330,A,5817.891006,N,05645.185623,E,,, 060325,,,A*4E
$GNRMC,152331,A,5817.898331,N,05645.197525,E,,, 060325,,,A*47
$GNRMC,152332,A,5817.906342,N,05645.210342,E,,, 060325,,,A*4D
$GNRMC,152333,A,5817.913895,N,05645.223846,E,,, 060325,,,A*46
$GNRMC,152334,A,5817.922592,N,05645.238037,E,,, 060325,,,A*4D
$GNRMC,152335,A,5817.931519,N,05645.252686,E,,, 060325,,,A*4D
$GNRMC,152336,A,5817.940674,N,05645.267563,E,,, 060325,,,A*4E
$GNRMC,152337,A,5817.949600,N,05645.282898,E,,, 060325,,,A*47
$GNRMC,152338,A,5817.958984,N,05645.298462,E,,, 060325,,,A*49
$GNRMC,152339,A,5817.968369,N,05645.313797,E,,, 060325,,,A*49
$GNRMC,152340,A,5817.977982,N,05645.329361,E,,, 060325,,,A*42
$GNRMC,152341,A,5817.986908,N,05645.344696,E,,, 060325,,,A*49
$GNRMC,152342,A,5817.996521,N,05645.360718,E,,, 060325,,,A*4D
$GNRMC,152343,A,5818.006592,N,05645.376968,E,,, 060325,,,A*45
$GNRMC,152344,A,5818.016205,N,05645.392990,E,,, 060325,,,A*47
$GNRMC,152345,A,5818.025360,N,05645.408783,E,,, 060325,,,A*4C
$GNRMC,152346,A,5818.034515,N,05645.423660,E,,, 060325,,,A*4E
$GNRMC,152347,A,5818.042984,N,05645.438538,E,,, 060325,,,A*4E
$GNRMC,152348,A,5818.050995,N,05645.453644,E,,, 060325,,,A*47
$GNRMC,152349,A,5818.059464,N,05645.468750,E,,, 060325,,,A*40
$GNRMC,152350,A,5818.067017,N,05645.484314,E,,, 060325,,,A*43
$GNRMC,152351,A,5818.074799,N,05645.500107,E,,, 060325,,,A*4C
$GNRMC,152352,A,5818.081894,N,05645.516357,E,,, 060325,,,A*47
$GNRMC,152353,A,5818.088989,N,05645.533295,E,,, 060325,,,A*4A
$GNRMC,152354,A,5818.095856,N,05645.550232,E,,, 060325,,,A*4A
$GNRMC,152355,A,5818.102264,N,05645.567856,E,,, 060325,,,A*43
$GNRMC,152356,A,5818.108215,N,05645.586395,E,,, 060325,,,A*47
$GNRMC,152357,A,5818.114395,N,05645.605621,E,,, 060325,,,A*40
$GNRMC,152358,A,5818.120117,N,05645.626450,E,,, 060325,,,A*45
$GNRMC,152359,A,5818.125381,N,05645.647507,E,,, 060325,,,A*48
$GNRMC,152400,A,5818.131332,N,05645.669708,E,,, 060325,,,A*4F
$GNRMC,152401,A,5818.136139,N,05645.692368,E,,, 060325,,,A*46
$GNRMC,152402,A,5818.141403,N,05645.715942,E,,, 060325,,,A*45
$GNRMC,152403,A,5818.146439,N,05645.739975,E,,, 060325,,,A*40
$GNRMC,152404,A,5818.150787,N,05645.763779,E,,, 060325,,,A*4B
$GNRMC,152405,A,5818.155365,N,05645.787582,E,,, 060325,,,A*4B
$GNRMC,152406,A,5818.159714,N,05645.811844,E,,, 060325,,,A*41
$GNRMC,152407,A,5818.164978,N,05645.836563,E,,, 060325,,,A*47
$GNRMC,152408,A,5818.169785,N,05645.861740,E,,, 060325,,,A*48
$GNRMC,152409,A,5818.174591,N,05645.886459,E,,, 060325,,,A*40
$GNRMC,152410,A,5818.179626,N,05645.911407,E,,, 060325,,,A*4E
$GNRMC,152411,A,5818.184891,N,05645.936356,E,,, 060325,,,A*49
$GNRMC,152412,A,5818.189697,N,05645.960846,E,,, 060325,,,A*46
$GNRMC,152413,A,5818.194733,N,05645.985794,E,,, 060325,,,A*4F
$GNRMC,152414,A,5818.199997,N,05646.010513,E,,, 060325,,,A*4E
$GNRMC,152415,A,5818.205719,N,05646.034775,E,,, 060325,,,A*45
$GNRMC,152416,A,5818.210983,N,05646.059036,E,,, 060325,,,A*44
$GNRMC,152417,A,5818.217392,N,05646.082840,E,,, 060325,,,A*47
$GNRMC,152418,A,5818.224258,N,05646.106415,E,,, 060325,,,A*4E
$GNRMC,152419,A,5818.231125,N,05646.130676,E,,, 060325,,,A*40
$GNRMC,152420,A,5818.238449,N,05646.154251,E,,, 060325,,,A*4F
$GNRMC,152421,A,5818.246231,N,05646.177597,E,,, 060325,,,A*42
$GNRMC,152422,A,5818.254242,N,05646.200943,E,,, 060325,,,A*40
$GNRMC,152423,A,5818.261795,N,05646.224289,E,,, 060325,,,A*43
$GNRMC,152424,A,5818.270035,N,05646.247177,E,,, 060325,,,A*4E
$GNRMC,152425,A,5818.277817,N,05646.269150,E,,, 060325,,,A*49
$GNRMC,152426,A,5818.285599,N,05646.291580,E,,, 060325,,,A*42
$GNRMC,152427,A,5818.293610,N,05646.313324,E,,, 060325,,,A*45
$GNRMC,152428,A,5818.301163,N,05646.335526,E,,, 060325,,,A*43
$GNRMC,152429,A,5818.309174,N,05646.357498,E,,, 060325,,,A*4C
$GNRMC,152430,A,5818.316956,N,05646.379471,E,,, 060325,,,A*49
$GNRMC,152431,A,5818.324509,N,05646.401672,E,,, 060325,,,A*46
$GNRMC,152432,A,5818.332062,N,05646.422729,E,,, 060325,,,A*44
$GNRMC,152433,A,5818.339615,N,05646.444016,E,,, 060325,,,A*43
$GNRMC,152434,A,5818.347168,N,05646.464386,E,,, 060325,,,A*48
$GNRMC,152435,A,5818.354263,N,05646.484756,E,,, 060325,,,A*44
$GNRMC,152436,A,5818.361130,N,05646.505127,E,,, 060325,,,A*4C
$GNRMC,152437,A,5818.368225,N,05646.525269,E,,, 060325,,,A*48
$GNRMC,152438,A,5818.374176,N,05646.544952,E,,, 060325,,,A*4B
$GNRMC,152439,A,5818.380585,N,05646.565552,E,,, 060325,,,A*46
$GNRMC,152440,A,5818.386536,N,05646.586151,E,,, 060325,,,A*4C
$GNRMC,152441,A,5818.391800,N,05646.607208,E,,, 060325,,,A*46
$GNRMC,152442,A,5818.396606,N,05646.628723,E,,, 060325,,,A*4B
$GNRMC,152443,A,5818.401642,N,05646.650467,E,,, 060325,,,A*4F
$GNRMC,152444,A,5818.405991,N,05646.672440,E,,, 060325,,,A*48
$GNRMC,152445,A,5818.410110,N,05646.694641,E,,, 060325,,,A*47
$GNRMC,152446,A,5818.413086,N,05646.717300,E,,, 060325,,,A*43
$GNRMC,152447,A,5818.416061,N,05646.740417,E,,, 060325,,,A*4D
$GNRMC,152448,A,5818.418350,N,05646.763535,E,,, 060325,,,A*4D
$GNRMC,152449,A,5818.419266,N,05646.786880,E,,, 060325,,,A*41
$GNRMC,152450,A,5818.419952,N,05646.810455,E,,, 060325,,,A*41
$GNRMC,152451,A,5818.419952,N,05646.833801,E,,, 060325,,,A*4C
$GNRMC,152452,A,5818.419952,N,05646.858521,E,,, 060325,,,A*4D
$GNRMC,152453,A,5818.419952,N,05646.883011,E,,, 060325,,,A*4C
$GNRMC,152454,A,5818.419724,N,05646.907501,E,,, 060325,,,A*4D
$GNRMC,152455,A,5818.418350,N,05646.931992,E,,, 060325,,,A*49
$GNRMC,152456,A,5818.416748,N,05646.956482,E,,, 060325,,,A*44
$GNRMC,152457,A,5818.414688,N,05646.980743,E,,, 060325,,,A*4F
$GNRMC,152458,A,5818.411942,N,05647.004547,E,,, 060325,,,A*4E
$GNRMC,152459,A,5818.408051,N,05647.028580,E,,, 060325,,,A*49
$GNRMC,152500,A,5818.404617,N,05647.051926,E,,, 060325,,,A*42
$GNRMC,152501,A,5818.399811,N,05647.074814,E,,, 060325,,,A*4F
$GNRMC,152502,A,5818.394775,N,05647.097244,E,,, 060325,,,A*4E
$GNRMC,152503,A,5818.389511,N,05647.119446,E,,, 060325,,,A*40
$GNRMC,152504,A,5818.383560,N,05647.140961,E,,, 060325,,,A*4F
$GNRMC,152505,A,5818.376694,N,05647.163391,E,,, 060325,,,A*48
$GNRMC,152506,A,5818.370285,N,05647.185822,E,,, 060325,,,A*42
$GNRMC,152507,A,5818.363190,N,05647.207565,E,,, 060325,,,A*41
$GNRMC,152508,A,5818.355408,N,05647.229538,E,,, 060325,,,A*4B
$GNRMC,152509,A,5818.347168,N,05647.251968,E,,, 060325,,,A*4C
$GNRMC,152510,A,5818.339386,N,05647.275085,E,,, 060325,,,A*43
$GNRMC,152511,A,5818.331146,N,05647.297745,E,,, 060325,,,A*43
$GNRMC,152512,A,5818.322906,N,05647.320175,E,,, 060325,,,A*46
$GNRMC,152513,A,5818.314209,N,05647.344208,E,,, 060325,,,A*4D
$GNRMC,152514,A,5818.305740,N,05647.367554,E,,, 060325,,,A*4D
$GNRMC,152515,A,5818.297043,N,05647.391129,E,,, 060325,,,A*45
$GNRMC,152516,A,5818.288574,N,05647.414474,E,,, 060325,,,A*4E
$GNRMC,152517,A,5818.279877,N,05647.438049,E,,, 060325,,,A*4B
$GNRMC,152518,A,5818.271408,N,05647.461853,E,,, 060325,,,A*47
$GNRMC,152519,A,5818.262711,N,05647.485428,E,,, 060325,,,A*45
$GNRMC,152520,A,5818.254471,N,05647.508774,E,,, 060325,,,A*41
$GNRMC,152521,A,5818.245544,N,05647.532349,E,,, 060325,,,A*44
$GNRMC,152522,A,5818.237076,N,05647.555695,E,,, 060325,,,A*43
$GNRMC,152523,A,5818.228378,N,05647.579269,E,,, 060325,,,A*48
$GNRMC,152524,A,5818.219452,N,05647.602844,E,,, 060325,,,A*48
$GNRMC,152525,A,5818.210983,N,05647.625732,E,,, 060325,,,A*4A
$GNRMC,152526,A,5818.202972,N,05647.648392,E,,, 060325,,,A*41
$GNRMC,152527,A,5818.194733,N,05647.671051,E,,, 060325,,,A*41
$GNRMC,152528,A,5818.186493,N,05647.693481,E,,, 060325,,,A*41
$GNRMC,152529,A,5818.178711,N,05647.715454,E,,, 060325,,,A*4F
$GNRMC,152530,A,5818.170929,N,05647.737656,E,,, 060325,,,A*4A
$GNRMC,152531,A,5818.162689,N,05647.759399,E,,, 060325,,,A*43
$GNRMC,152532,A,5818.154907,N,05647.781372,E,,, 060325,,,A*4C
$GNRMC,152533,A,5818.146439,N,05647.803116,E,,, 060325,,,A*4B
$GNRMC,152534,A,5818.138885,N,05647.825089,E,,, 060325,,,A*4D
$GNRMC,152535,A,5818.130646,N,05647.846603,E,,, 060325,,,A*44
$GNRMC,152536,A,5818.122406,N,05647.868805,E,,, 060325,,,A*46
$GNRMC,152537,A,5818.114624,N,05647.890549,E,,, 060325,,,A*42
$GNRMC,152538,A,5818.107071,N,05647.912521,E,,, 060325,,,A*4C
$GNRMC,152539,A,5818.098831,N,05647.934265,E,,, 060325,,,A*45
$GNRMC,152540,A,5818.091049,N,05647.957382,E,,, 060325,,,A*48
$GNRMC,152541,A,5818.083038,N,05647.980499,E,,, 060325,,,A*4B
$GNRMC,152542,A,5818.075256,N,05648.004532,E,,, 060325,,,A*41
$GNRMC,152543,A,5818.068619,N,05648.028793,E,,, 060325,,,A*44
$GNRMC,152544,A,5818.061523,N,05648.052826,E,,, 060325,,,A*4C
$GNRMC,152545,A,5818.055573,N,05648.077545,E,,, 060325,,,A*40
$GNRMC,152546,A,5818.048935,N,05648.102722,E,,, 060325,,,A*41
$GNRMC,152547,A,5818.043442,N,05648.128357,E,,, 060325,,,A*48
$GNRMC,152548,A,5818.038635,N,05648.153992,E,,, 060325,,,A*46
$GNRMC,152549,A,5818.033829,N,05648.180542,E,,, 060325,,,A*40
$GNRMC,152550,A,5818.029709,N,05648.206635,E,,, 060325,,,A*40
$GNRMC,152551,A,5818.027191,N,05648.233871,E,,, 060325,,,A*40
$GNRMC,152552,A,5818.024216,N,05648.261337,E,,, 060325,,,A*42
$GNRMC,152553,A,5818.022614,N,05648.289490,E,,, 060325,,,A*4F
$GNRMC,152554,A,5818.020782,N,05648.318100,E,,, 060325,,,A*41
$GNRMC,152555,A,5818.019409,N,05648.347855,E,,, 060325,,,A*49
$GNRMC,152556,A,5818.018494,N,05648.377151,E,,, 060325,,,A*41
$GNRMC,152557,A,5818.017578,N,05648.406906,E,,, 060325,,,A*47
$GNRMC,152558,A,5818.016663,N,05648.436661,E,,, 060325,,,A*4D
$GNRMC,152559,A,5818.016205,N,05648.465271,E,,, 060325,,,A*4B
$GNRMC,152600,A,5818.015518,N,05648.492737,E,,, 060325,,,A*43
$GNRMC,152601,A,5818.014374,N,05648.519058,E,,, 060325,,,A*43
$GNRMC,152602,A,5818.013229,N,05648.544693,E,,, 060325,,,A*47
$GNRMC,152603,A,5818.011398,N,05648.570099,E,,, 060325,,,A*44
$GNRMC,152604,A,5818.009109,N,05648.595505,E,,, 060325,,,A*4B
$GNRMC,152605,A,5818.006134,N,05648.620224,E,,, 060325,,,A*42
$GNRMC,152606,A,5818.002472,N,05648.645859,E,,, 060325,,,A*41
$GNRMC,152607,A,5817.998352,N,05648.671265,E,,, 060325,,,A*42
$GNRMC,152608,A,5817.993088,N,05648.696442,E,,, 060325,,,A*48
$GNRMC,152609,A,5817.987366,N,05648.720245,E,,, 060325,,,A*42
$GNRMC,152610,A,5817.981186,N,05648.744965,E,,, 060325,,,A*4B
$GNRMC,152611,A,5817.973862,N,05648.769226,E,,, 060325,,,A*47
$GNRMC,152612,A,5817.966309,N,05648.794174,E,,, 060325,,,A*40
$GNRMC,152613,A,5817.958755,N,05648.818665,E,,, 060325,,,A*4D
$GNRMC,152614,A,5817.950745,N,05648.843613,E,,, 060325,,,A*4C
$GNRMC,152615,A,5817.942963,N,05648.868561,E,,, 060325,,,A*4B
$GNRMC,152616,A,5817.934494,N,05648.893738,E,,, 060325,,,A*46
$GNRMC,152617,A,5817.926254,N,05648.918915,E,,, 060325,,,A*4D
$GNRMC,152618,A,5817.917557,N,05648.945007,E,,, 060325,,,A*46
$GNRMC,152619,A,5817.909088,N,05648.970871,E,,, 060325,,,A*40
$GNRMC,152620,A,5817.900391,N,05648.997879,E,,, 060325,,,A*49
$GNRMC,152621,A,5817.891464,N,05649.024658,E,,, 060325,,,A*41
$GNRMC,152622,A,5817.882309,N,05649.051895,E,,, 060325,,,A*41
$GNRMC,152623,A,5817.874298,N,05649.078903,E,,, 060325,,,A*45
$GNRMC,152624,A,5817.866058,N,05649.105453,E,,, 060325,,,A*4C
$GNRMC,152625,A,5817.857819,N,05649.132004,E,,, 060325,,,A*40
$GNRMC,152626,A,5817.850952,N,05649.157181,E,,, 060325,,,A*45
$GNRMC,152627,A,5817.843857,N,05649.180756,E,,, 060325,,,A*44
$GNRMC,152628,A,5817.837677,N,05649.203415,E,,, 060325,,,A*48
$GNRMC,152629,A,5817.832413,N,05649.225845,E,,, 060325,,,A*41
$GNRMC,152630,A,5817.827606,N,05649.248276,E,,, 060325,,,A*4A
$GNRMC,152631,A,5817.822113,N,05649.272079,E,,, 060325,,,A*49
$GNRMC,152632,A,5817.817993,N,05649.296570,E,,, 060325,,,A*4A
$GNRMC,152633,A,5817.814560,N,05649.320831,E,,, 060325,,,A*4C
$GNRMC,152634,A,5817.810898,N,05649.345551,E,,, 060325,,,A*4D
$GNRMC,152635,A,5817.808380,N,05649.370728,E,,, 060325,,,A*4D
$GNRMC,152636,A,5817.806320,N,05649.396133,E,,, 060325,,,A*4E
$GNRMC,152637,A,5817.804260,N,05649.421310,E,,, 060325,,,A*40
$GNRMC,152638,A,5817.803345,N,05649.445572,E,,, 060325,,,A*4E
$GNRMC,152639,A,5817.802429,N,05649.470291,E,,, 060325,,,A*4F
$GNRMC,152640,A,5817.802429,N,05649.494781,E,,, 060325,,,A*4F
$GNRMC,152641,A,5817.802887,N,05649.520416,E,,, 060325,,,A*45
$GNRMC,152642,A,5817.804260,N,05649.546051,E,,, 060325,,,A*44
$GNRMC,152643,A,5817.805634,N,05649.570312,E,,, 060325,,,A*40
$GNRMC,152644,A,5817.807465,N,05649.593658,E,,, 060325,,,A*45
$GNRMC,152645,A,5817.809525,N,05649.615860,E,,, 060325,,,A*47
$GNRMC,152646,A,5817.811584,N,05649.637833,E,,, 060325,,,A*40
$GNRMC,152647,A,5817.814560,N,05649.658890,E,,, 060325,,,A*4E
$GNRMC,152648,A,5817.816849,N,05649.679489,E,,, 060325,,,A*42
$GNRMC,152649,A,5817.820053,N,05649.700317,E,,, 060325,,,A*4A
$GNRMC,152650,A,5817.823486,N,05649.720917,E,,, 060325,,,A*45
$GNRMC,152651,A,5817.826691,N,05649.741287,E,,, 060325,,,A*40
$GNRMC,152652,A,5817.830582,N,05649.761429,E,,, 060325,,,A*45
$GNRMC,152653,A,5817.834473,N,05649.781799,E,,, 060325,,,A*49
$GNRMC,152654,A,5817.837677,N,05649.802170,E,,, 060325,,,A*4E
$GNRMC,152655,A,5817.841797,N,05649.822311,E,,, 060325,,,A*46
$GNRMC,152656,A,5817.845917,N,05649.842453,E,,, 060325,,,A*40
$GNRMC,152657,A,5817.850952,N,05649.863281,E,,, 060325,,,A*4E
$GNRMC,152658,A,5817.855301,N,05649.883652,E,,, 060325,,,A*4C
$GNRMC,152659,A,5817.860794,N,05649.904022,E,,, 060325,,,A*4C
$GNRMC,152700,A,5817.866287,N,05649.924622,E,,, 060325,,,A*44
$GNRMC,152701,A,5817.872467,N,05649.944763,E,,, 060325,,,A*4A
$GNRMC,152702,A,5817.879333,N,05649.965363,E,,, 060325,,,A*43
$GNRMC,152703,A,5817.887115,N,05649.986191,E,,, 060325,,,A*47
$GNRMC,152704,A,5817.893753,N,05650.006332,E,,, 060325,,,A*43
$GNRMC,152705,A,5817.901535,N,05650.026016,E,,, 060325,,,A*4D
$GNRMC,152706,A,5817.908630,N,05650.045013,E,,, 060325,,,A*41
$GNRMC,152707,A,5817.915955,N,05650.064240,E,,, 060325,,,A*47
$GNRMC,152708,A,5817.923508,N,05650.083008,E,,, 060325,,,A*4E
$GNRMC,152709,A,5817.930832,N,05650.101318,E,,, 060325,,,A*40
$GNRMC,152710,A,5817.937698,N,05650.119400,E,,, 060325,,,A*46
$GNRMC,152711,A,5817.944107,N,05650.136566,E,,, 060325,,,A*4E
$GNRMC,152712,A,5817.950745,N,05650.153961,E,,, 060325,,,A*40
$GNRMC,152713,A,5817.956924,N,05650.170670,E,,, 060325,,,A*40
$GNRMC,152714,A,5817.962875,N,05650.187607,E,,, 060325,,,A*4D
$GNRMC,152715,A,5817.969284,N,05650.205688,E,,, 060325,,,A*4D
$GNRMC,152716,A,5817.975006,N,05650.223770,E,,, 060325,,,A*49
$GNRMC,152717,A,5817.981186,N,05650.243225,E,,, 060325,,,A*49
$GNRMC,152718,A,5817.986908,N,05650.262909,E,,, 060325,,,A*49
$GNRMC,152719,A,5817.992172,N,05650.282822,E,,, 060325,,,A*4E
$GNRMC,152720,A,5817.997437,N,05650.304337,E,,, 060325,,,A*45
$GNRMC,152721,A,5818.002472,N,05650.325623,E,,, 060325,,,A*4C
$GNRMC,152722,A,5818.007278,N,05650.348511,E,,, 060325,,,A*4F
$GNRMC,152723,A,5818.012085,N,05650.372543,E,,, 060325,,,A*44
$GNRMC,152724,A,5818.016434,N,05650.396805,E,,, 060325,,,A*4C
$GNRMC,152725,A,5818.020782,N,05650.419693,E,,, 060325,,,A*47
$GNRMC,152726,A,5818.024902,N,05650.443039,E,,, 060325,,,A*4F
$GNRMC,152727,A,5818.029251,N,05650.465240,E,,, 060325,,,A*46
$GNRMC,152728,A,5818.032684,N,05650.487671,E,,, 060325,,,A*45
$GNRMC,152729,A,5818.036804,N,05650.510101,E,,, 060325,,,A*49
$GNRMC,152730,A,5818.040695,N,05650.531158,E,,, 060325,,,A*49
$GNRMC,152731,A,5818.044586,N,05650.552444,E,,, 060325,,,A*40
$GNRMC,152732,A,5818.047791,N,05650.573730,E,,, 060325,,,A*47
$GNRMC,152733,A,5818.051910,N,05650.595016,E,,, 060325,,,A*4D
$GNRMC,152734,A,5818.056030,N,05650.617447,E,,, 060325,,,A*4F
$GNRMC,152735,A,5818.059921,N,05650.639877,E,,, 060325,,,A*4B
$GNRMC,152736,A,5818.063812,N,05650.663223,E,,, 060325,,,A*44
$GNRMC,152737,A,5818.067017,N,05650.686798,E,,, 060325,,,A*42
$GNRMC,152738,A,5818.070679,N,05650.710602,E,,, 060325,,,A*49
$GNRMC,152739,A,5818.073196,N,05650.735779,E,,, 060325,,,A*47
$GNRMC,152740,A,5818.075943,N,05650.760498,E,,, 060325,,,A*43
$GNRMC,152741,A,5818.078690,N,05650.786591,E,,, 060325,,,A*4E
$GNRMC,152742,A,5818.080750,N,05650.812912,E,,, 060325,,,A*42
$GNRMC,152743,A,5818.083038,N,05650.839233,E,,, 060325,,,A*48
$GNRMC,152744,A,5818.084869,N,05650.865326,E,,, 060325,,,A*48
$GNRMC,152745,A,5818.086929,N,05650.893021,E,,, 060325,,,A*43
$GNRMC,152746,A,5818.088303,N,05650.920486,E,,, 060325,,,A*4C
$GNRMC,152747,A,5818.090134,N,05650.947952,E,,, 060325,,,A*47
$GNRMC,152748,A,5818.091965,N,05650.975189,E,,, 060325,,,A*4A
$GNRMC,152749,A,5818.093109,N,05651.002884,E,,, 060325,,,A*47
$GNRMC,152750,A,5818.095169,N,05651.030350,E,,, 060325,,,A*4C
$GNRMC,152751,A,5818.096771,N,05651.057816,E,,, 060325,,,A*49
$GNRMC,152752,A,5818.097916,N,05651.085052,E,,, 060325,,,A*43
$GNRMC,152753,A,5818.099518,N,05651.112518,E,,, 060325,,,A*4A
$GNRMC,152754,A,5818.101120,N,05651.140213,E,,, 060325,,,A*49
$GNRMC,152755,A,5818.102951,N,05651.167679,E,,, 060325,,,A*48
$GNRMC,152756,A,5818.104324,N,05651.194916,E,,, 060325,,,A*4F
$GNRMC,152757,A,5818.106155,N,05651.222382,E,,, 060325,,,A*41
$GNRMC,152758,A,5818.107300,N,05651.250076,E,,, 060325,,,A*40
$GNRMC,152759,A,5818.109131,N,05651.277542,E,,, 060325,,,A*48
$GNRMC,152800,A,5818.110046,N,05651.305237,E,,, 060325,,,A*43
$GNRMC,152801,A,5818.110504,N,05651.331329,E,,, 060325,,,A*48
$GNRMC,152802,A,5818.111420,N,05651.358109,E,,, 060325,,,A*42
$GNRMC,152803,A,5818.112106,N,05651.384659,E,,, 060325,,,A*42
$GNRMC,152804,A,5818.112335,N,05651.411438,E,,, 060325,,,A*49
$GNRMC,152805,A,5818.112335,N,05651.437759,E,,, 060325,,,A*48
$GNRMC,152806,A,5818.112335,N,05651.464539,E,,, 060325,,,A*49
$GNRMC,152807,A,5818.112106,N,05651.491089,E,,, 060325,,,A*4E
$GNRMC,152808,A,5818.111420,N,05651.516724,E,,, 060325,,,A*4D
$GNRMC,152809,A,5818.110504,N,05651.542130,E,,, 060325,,,A*48
$GNRMC,152810,A,5818.109360,N,05651.568909,E,,, 060325,,,A*46
$GNRMC,152811,A,5818.107986,N,05651.595001,E,,, 060325,,,A*48
$GNRMC,152812,A,5818.105927,N,05651.621552,E,,, 060325,,,A*4D
$GNRMC,152813,A,5818.103638,N,05651.647644,E,,, 060325,,,A*4F
$GNRMC,152814,A,5818.101578,N,05651.673965,E,,, 060325,,,A*46
$GNRMC,152815,A,5818.098831,N,05651.700287,E,,, 060325,,,A*44
$GNRMC,152816,A,5818.095856,N,05651.726151,E,,, 060325,,,A*47
$GNRMC,152817,A,5818.092651,N,05651.752472,E,,, 060325,,,A*4F
$GNRMC,152818,A,5818.088989,N,05651.776962,E,,, 060325,,,A*4B
$GNRMC,152819,A,5818.085785,N,05651.801453,E,,, 060325,,,A*45
$GNRMC,152820,A,5818.081665,N,05651.825714,E,,, 060325,,,A*42
$GNRMC,152821,A,5818.076630,N,05651.850891,E,,, 060325,,,A*4B
$GNRMC,152822,A,5818.071823,N,05651.875839,E,,, 060325,,,A*46
$GNRMC,152823,A,5818.066559,N,05651.900330,E,,, 060325,,,A*40
$GNRMC,152824,A,5818.060608,N,05651.925507,E,,, 060325,,,A*43
$GNRMC,152825,A,5818.054657,N,05651.951141,E,,, 060325,,,A*4A
$GNRMC,152826,A,5818.048477,N,05651.976776,E,,, 060325,,,A*43
$GNRMC,152827,A,5818.041840,N,05652.002869,E,,, 060325,,,A*4B
$GNRMC,152828,A,5818.035431,N,05652.028503,E,,, 060325,,,A*44
$GNRMC,152829,A,5818.028564,N,05652.054367,E,,, 060325,,,A*47
$GNRMC,152830,A,5818.022156,N,05652.080231,E,,, 060325,,,A*4B
$GNRMC,152831,A,5818.015518,N,05652.105865,E,,, 060325,,,A*47
$GNRMC,152832,A,5818.009109,N,05652.131271,E,,, 060325,,,A*45
$GNRMC,152833,A,5818.003387,N,05652.154846,E,,, 060325,,,A*47
$GNRMC,152834,A,5817.997208,N,05652.178879,E,,, 060325,,,A*4F
$GNRMC,152835,A,5817.991257,N,05652.202225,E,,, 060325,,,A*4F
$GNRMC,152836,A,5817.986450,N,05652.224884,E,,, 060325,,,A*4E
$GNRMC,152837,A,5817.981415,N,05652.247543,E,,, 060325,,,A*4A
$GNRMC,152838,A,5817.977066,N,05652.269745,E,,, 060325,,,A*44
$GNRMC,152839,A,5817.973175,N,05652.291031,E,,, 060325,,,A*41
$GNRMC,152840,A,5817.969971,N,05652.312546,E,,, 060325,,,A*47
$GNRMC,152841,A,5817.966766,N,05652.332916,E,,, 060325,,,A*4A
$GNRMC,152842,A,5817.964020,N,05652.354202,E,,, 060325,,,A*40
$GNRMC,152843,A,5817.961960,N,05652.375259,E,,, 060325,,,A*44
$GNRMC,152844,A,5817.959900,N,05652.396317,E,,, 060325,,,A*48
$GNRMC,152845,A,5817.958069,N,05652.417831,E,,, 060325,,,A*4F
$GNRMC,152846,A,5817.956924,N,05652.438660,E,,, 060325,,,A*45
$GNRMC,152847,A,5817.956696,N,05652.461319,E,,, 060325,,,A*45
$GNRMC,152848,A,5817.956696,N,05652.483978,E,,, 060325,,,A*4B
$GNRMC,152849,A,5817.956696,N,05652.507553,E,,, 060325,,,A*42
$GNRMC,152850,A,5817.956924,N,05652.530899,E,,, 060325,,,A*43
$GNRMC,152851,A,5817.957153,N,05652.554474,E,,, 060325,,,A*46
$GNRMC,152852,A,5817.957840,N,05652.577820,E,,, 060325,,,A*42
$GNRMC,152853,A,5817.958069,N,05652.602768,E,,, 060325,,,A*4D
$GNRMC,152854,A,5817.958755,N,05652.627029,E,,, 060325,,,A*47
$GNRMC,152855,A,5817.959671,N,05652.651520,E,,, 060325,,,A*4D
$GNRMC,152856,A,5817.959900,N,05652.676010,E,,, 060325,,,A*44
$GNRMC,152857,A,5817.960815,N,05652.700729,E,,, 060325,,,A*47
$GNRMC,152858,A,5817.960815,N,05652.725220,E,,, 060325,,,A*43
$GNRMC,152859,A,5817.961731,N,05652.749710,E,,, 060325,,,A*46
$GNRMC,152900,A,5817.961960,N,05652.774200,E,,, 060325,,,A*4B
$GNRMC,152901,A,5817.962875,N,05652.798920,E,,, 060325,,,A*47
$GNRMC,152902,A,5817.963104,N,05652.823410,E,,, 060325,,,A*4B
$GNRMC,152903,A,5817.963562,N,05652.847900,E,,, 060325,,,A*40
$GNRMC,152904,A,5817.964020,N,05652.872391,E,,, 060325,,,A*47
$GNRMC,152905,A,5817.964935,N,05652.896881,E,,, 060325,,,A*4B
$GNRMC,152906,A,5817.965164,N,05652.921600,E,,, 060325,,,A*4F
$GNRMC,152907,A,5817.965622,N,05652.946091,E,,, 060325,,,A*44
$GNRMC,152908,A,5817.966080,N,05652.970581,E,,, 060325,,,A*47
$GNRMC,152909,A,5817.965622,N,05652.995071,E,,, 060325,,,A*4A
$GNRMC,152910,A,5817.965164,N,05653.019562,E,,, 060325,,,A*4C
$GNRMC,152911,A,5817.964935,N,05653.043137,E,,, 060325,,,A*4B
$GNRMC,152912,A,5817.964249,N,05653.066711,E,,, 060325,,,A*4D
$GNRMC,152913,A,5817.963562,N,05653.090057,E,,, 060325,,,A*49
$GNRMC,152914,A,5817.962189,N,05653.112717,E,,, 060325,,,A*46
$GNRMC,152915,A,5817.960815,N,05653.134918,E,,, 060325,,,A*4C
$GNRMC,152916,A,5817.958755,N,05653.157120,E,,, 060325,,,A*49
$GNRMC,152917,A,5817.956009,N,05653.178864,E,,, 060325,,,A*4C
$GNRMC,152918,A,5817.952805,N,05653.200836,E,,, 060325,,,A*48
$GNRMC,152919,A,5817.949600,N,05653.221207,E,,, 060325,,,A*43
$GNRMC,152920,A,5817.945480,N,05653.241577,E,,, 060325,,,A*49
$GNRMC,152921,A,5817.941589,N,05653.261261,E,,, 060325,,,A*46
$GNRMC,152922,A,5817.936783,N,05653.279800,E,,, 060325,,,A*49
$GNRMC,152923,A,5817.931976,N,05653.298111,E,,, 060325,,,A*4D
$GNRMC,152924,A,5817.926941,N,05653.315964,E,,, 060325,,,A*46
$GNRMC,152925,A,5817.920761,N,05653.333817,E,,, 060325,,,A*4C
$GNRMC,152926,A,5817.914810,N,05653.351212,E,,, 060325,,,A*4A
$GNRMC,152927,A,5817.907715,N,05653.368378,E,,, 060325,,,A*44
$GNRMC,152928,A,5817.900620,N,05653.385315,E,,, 060325,,,A*43
$GNRMC,152929,A,5817.893524,N,05653.401337,E,,, 060325,,,A*45
$GNRMC,152930,A,5817.885513,N,05653.417358,E,,, 060325,,,A*40
$GNRMC,152931,A,5817.878189,N,05653.432693,E,,, 060325,,,A*41
$GNRMC,152932,A,5817.870178,N,05653.447571,E,,, 060325,,,A*49
$GNRMC,152933,A,5817.861023,N,05653.461761,E,,, 060325,,,A*40
$GNRMC,152934,A,5817.852325,N,05653.473892,E,,, 060325,,,A*42
$GNRMC,152935,A,5817.843857,N,05653.485565,E,,, 060325,,,A*41
$GNRMC,152936,A,5817.834930,N,05653.496552,E,,, 060325,,,A*44
$GNRMC,152937,A,5817.825546,N,05653.506851,E,,, 060325,,,A*4E
$GNRMC,152938,A,5817.815704,N,05653.515778,E,,, 060325,,,A*40
$GNRMC,152939,A,5817.805634,N,05653.524017,E,,, 060325,,,A*4E
$GNRMC,152940,A,5817.795792,N,05653.531113,E,,, 060325,,,A*4A
$GNRMC,152941,A,5817.784805,N,05653.537521,E,,, 060325,,,A*49
$GNRMC,152942,A,5817.774277,N,05653.542557,E,,, 060325,,,A*49
$GNRMC,152943,A,5817.763062,N,05653.547363,E,,, 060325,,,A*4C
$GNRMC,152944,A,5817.751160,N,05653.551712,E,,, 060325,,,A*4C
$GNRMC,152945,A,5817.739944,N,05653.554916,E,,, 060325,,,A*42
$GNRMC,152946,A,5817.728271,N,05653.557892,E,,, 060325,,,A*42
$GNRMC,152947,A,5817.716599,N,05653.561096,E,,, 060325,,,A*46
$GNRMC,152948,A,5817.704010,N,05653.564301,E,,, 060325,,,A*46
$GNRMC,152949,A,5817.691422,N,05653.567047,E,,, 060325,,,A*4D
$GNRMC,152950,A,5817.679291,N,05653.569794,E,,, 060325,,,A*4A
$GNRMC,152951,A,5817.666016,N,05653.572311,E,,, 060325,,,A*4B
$GNRMC,152952,A,5817.652969,N,05653.575287,E,,, 060325,,,A*47
$GNRMC,152953,A,5817.639236,N,05653.577576,E,,, 060325,,,A*41
$GNRMC,152954,A,5817.625275,N,05653.579865,E,,, 060325,,,A*4D
$GNRMC,152955,A,5817.611542,N,05653.582382,E,,, 060325,,,A*4E
$GNRMC,152956,A,5817.597122,N,05653.584671,E,,, 060325,,,A*4D
$GNRMC,152957,A,5817.583389,N,05653.586731,E,,, 060325,,,A*4D
$GNRMC,152958,A,5817.569656,N,05653.589020,E,,, 060325,,,A*49
$GNRMC,152959,A,5817.555695,N,05653.591309,E,,, 060325,,,A*49
$GNRMC,153000,A,5817.541962,N,05653.594055,E,,, 060325,,,A*40
$GNRMC,153001,A,5817.528915,N,05653.596344,E,,, 060325,,,A*4F
$GNRMC,153002,A,5817.516327,N,05653.598633,E,,, 060325,,,A*41
$GNRMC,153003,A,5817.504883,N,05653.601608,E,,, 060325,,,A*4D
$GNRMC,153004,A,5817.493896,N,05653.604813,E,,, 060325,,,A*40
$GNRMC,153005,A,5817.482910,N,05653.608475,E,,, 060325,,,A*4E
$GNRMC,153006,A,5817.471924,N,05653.613281,E,,, 060325,,,A*41
$GNRMC,153007,A,5817.461624,N,05653.618088,E,,, 060325,,,A*4E
$GNRMC,153008,A,5817.451553,N,05653.623352,E,,, 060325,,,A*4D
$GNRMC,153009,A,5817.441711,N,05653.629303,E,,, 060325,,,A*47
$GNRMC,153010,A,5817.432327,N,05653.635941,E,,, 060325,,,A*4B
$GNRMC,153011,A,5817.423859,N,05653.643494,E,,, 060325,,,A*4C
$GNRMC,153012,A,5817.414932,N,05653.651047,E,,, 060325,,,A*4E
$GNRMC,153013,A,5817.406464,N,05653.660202,E,,, 060325,,,A*43
$GNRMC,153014,A,5817.398224,N,05653.669128,E,,, 060325,,,A*44
$GNRMC,153015,A,5817.391129,N,05653.678741,E,,, 060325,,,A*4B
$GNRMC,153016,A,5817.384033,N,05653.688354,E,,, 060325,,,A*49
$GNRMC,153017,A,5817.377625,N,05653.698883,E,,, 060325,,,A*45
$GNRMC,153018,A,5817.370987,N,05653.709641,E,,, 060325,,,A*43
$GNRMC,153019,A,5817.364578,N,05653.720627,E,,, 060325,,,A*40
$GNRMC,153020,A,5817.358398,N,05653.731842,E,,, 060325,,,A*40
$GNRMC,153021,A,5817.351761,N,05653.744431,E,,, 060325,,,A*40
$GNRMC,153022,A,5817.345581,N,05653.756790,E,,, 060325,,,A*41
$GNRMC,153023,A,5817.338943,N,05653.770523,E,,, 060325,,,A*46
$GNRMC,153024,A,5817.332764,N,05653.784943,E,,, 060325,,,A*41
$GNRMC,153025,A,5817.326584,N,05653.800278,E,,, 060325,,,A*49
$GNRMC,153026,A,5817.320175,N,05653.816986,E,,, 060325,,,A*4B
$GNRMC,153027,A,5817.314453,N,05653.834152,E,,, 060325,,,A*4D
$GNRMC,153028,A,5817.308502,N,05653.851318,E,,, 060325,,,A*45
$GNRMC,153029,A,5817.303238,N,05653.869400,E,,, 060325,,,A*44
$GNRMC,153030,A,5817.298889,N,05653.887024,E,,, 060325,,,A*4D
$GNRMC,153031,A,5817.294769,N,05653.906021,E,,, 060325,,,A*4C
$GNRMC,153032,A,5817.290421,N,05653.925247,E,,, 060325,,,A*47
$GNRMC,153033,A,5817.287216,N,05653.943558,E,,, 060325,,,A*4B
$GNRMC,153034,A,5817.284012,N,05653.962326,E,,, 060325,,,A*45
$GNRMC,153035,A,5817.281723,N,05653.980865,E,,, 060325,,,A*44
$GNRMC,153036,A,5817.278748,N,05653.999863,E,,, 060325,,,A*42
$GNRMC,153037,A,5817.276230,N,05654.018860,E,,, 060325,,,A*43
$GNRMC,153038,A,5817.274170,N,05654.039001,E,,, 060325,,,A*45
$GNRMC,153039,A,5817.272110,N,05654.057999,E,,, 060325,,,A*44
