$GNRMC,033451,A,5800.367355,N,05617.086716,E,,, 260325,,,A*49
$GNRMC,033452,A,5800.367355,N,05617.086716,E,,, 260325,,,A*4A
$GNRMC,033453,A,5800.367355,N,05617.086716,E,,, 260325,,,A*4B
$GNRMC,033454,A,5800.367355,N,05617.086716,E,,, 260325,,,A*4C
$GNRMC,033455,A,5800.367355,N,05617.086716,E,,, 260325,,,A*4D
$GNRMC,033456,A,5800.367355,N,05617.086716,E,,, 260325,,,A*4E
$GNRMC,033457,A,5800.367355,N,05617.086716,E,,, 260325,,,A*4F
$GNRMC,033458,A,5800.367355,N,05617.086716,E,,, 260325,,,A*40
$GNRMC,033459,A,5800.367355,N,05617.086716,E,,, 260325,,,A*41
$GNRMC,033500,A,5800.367355,N,05617.086716,E,,, 260325,,,A*4C
$GNRMC,033501,A,5800.367355,N,05617.086716,E,,, 260325,,,A*4D
$GNRMC,033502,A,5800.367355,N,05617.086716,E,,, 260325,,,A*4E
$GNRMC,033503,A,5800.367355,N,05617.086716,E,,, 260325,,,A*4F
$GNRMC,033504,A,5800.367355,N,05617.086716,E,,, 260325,,,A*48
$GNRMC,033505,A,5800.367355,N,05617.086716,E,,, 260325,,,A*49
$GNRMC,033506,A,5800.367355,N,05617.086716,E,,, 260325,,,A*4A
$GNRMC,033507,A,5800.367355,N,05617.086716,E,,, 260325,,,A*4B
$GNRMC,033508,A,5800.368042,N,05617.086487,E,,, 260325,,,A*45
$GNRMC,033509,A,5800.369873,N,05617.084656,E,,, 260325,,,A*43
$GNRMC,033510,A,5800.372391,N,05617.082138,E,,, 260325,,,A*4F
$GNRMC,033511,A,5800.376968,N,05617.078934,E,,, 260325,,,A*47
$GNRMC,033512,A,5800.381088,N,05617.076187,E,,, 260325,,,A*45
$GNRMC,033513,A,5800.384521,N,05617.074127,E,,, 260325,,,A*4F
$GNRMC,033514,A,5800.387497,N,05617.072754,E,,, 260325,,,A*43
$GNRMC,033515,A,5800.390015,N,05617.070923,E,,, 260325,,,A*46
$GNRMC,033516,A,5800.392303,N,05617.069778,E,,, 260325,,,A*4B
$GNRMC,033517,A,5800.394363,N,05617.068634,E,,, 260325,,,A*42
$GNRMC,033518,A,5800.397339,N,05617.066803,E,,, 260325,,,A*45
$GNRMC,033519,A,5800.399628,N,05617.064972,E,,, 260325,,,A*4A
$GNRMC,033520,A,5800.402603,N,05617.062912,E,,, 260325,,,A*4C
$GNRMC,033521,A,5800.405579,N,05617.060394,E,,, 260325,,,A*42
$GNRMC,033522,A,5800.408096,N,05617.057648,E,,, 260325,,,A*48
$GNRMC,033523,A,5800.410385,N,05617.055588,E,,, 260325,,,A*4C
$GNRMC,033524,A,5800.413589,N,05617.052612,E,,, 260325,,,A*45
$GNRMC,033525,A,5800.417252,N,05617.049637,E,,, 260325,,,A*4C
$GNRMC,033526,A,5800.419769,N,05617.046204,E,,, 260325,,,A*47
$GNRMC,033527,A,5800.423203,N,05617.042542,E,,, 260325,,,A*47
$GNRMC,033528,A,5800.426865,N,05617.037735,E,,, 260325,,,A*47
$GNRMC,033529,A,5800.430527,N,05617.033157,E,,, 260325,,,A*4C
$GNRMC,033530,A,5800.434875,N,05617.028809,E,,, 260325,,,A*42
$GNRMC,033531,A,5800.440598,N,05617.024689,E,,, 260325,,,A*44
$GNRMC,033532,A,5800.445404,N,05617.019882,E,,, 260325,,,A*4D
$GNRMC,033533,A,5800.450668,N,05617.015305,E,,, 260325,,,A*48
$GNRMC,033534,A,5800.456619,N,05617.010040,E,,, 260325,,,A*48
$GNRMC,033535,A,5800.462112,N,05617.005234,E,,, 260325,,,A*47
$GNRMC,033536,A,5800.468063,N,05617.000198,E,,, 260325,,,A*49
$GNRMC,033537,A,5800.473785,N,05616.995163,E,,, 260325,,,A*4D
$GNRMC,033538,A,5800.479279,N,05616.989899,E,,, 260325,,,A*4F
$GNRMC,033539,A,5800.485001,N,05616.984634,E,,, 260325,,,A*44
$GNRMC,033540,A,5800.490952,N,05616.979828,E,,, 260325,,,A*40
$GNRMC,033541,A,5800.496445,N,05616.974564,E,,, 260325,,,A*44
$GNRMC,033542,A,5800.502167,N,05616.969299,E,,, 260325,,,A*47
$GNRMC,033543,A,5800.508118,N,05616.964035,E,,, 260325,,,A*4D
$GNRMC,033544,A,5800.513611,N,05616.959000,E,,, 260325,,,A*46
$GNRMC,033545,A,5800.519562,N,05616.954193,E,,, 260325,,,A*4C
$GNRMC,033546,A,5800.525284,N,05616.948929,E,,, 260325,,,A*4B
$GNRMC,033547,A,5800.530548,N,05616.944580,E,,, 260325,,,A*4A
$GNRMC,033548,A,5800.535812,N,05616.939316,E,,, 260325,,,A*41
$GNRMC,033549,A,5800.541534,N,05616.934280,E,,, 260325,,,A*49
$GNRMC,033550,A,5800.546799,N,05616.929016,E,,, 260325,,,A*42
$GNRMC,033551,A,5800.552750,N,05616.923752,E,,, 260325,,,A*4E
$GNRMC,033552,A,5800.558472,N,05616.919174,E,,, 260325,,,A*4F
$GNRMC,033553,A,5800.563736,N,05616.914597,E,,, 260325,,,A*41
$GNRMC,033554,A,5800.568085,N,05616.909790,E,,, 260325,,,A*4B
$GNRMC,033555,A,5800.572891,N,05616.905670,E,,, 260325,,,A*4F
$GNRMC,033556,A,5800.577240,N,05616.902237,E,,, 260325,,,A*4F
$GNRMC,033557,A,5800.579987,N,05616.899719,E,,, 260325,,,A*4A
$GNRMC,033558,A,5800.582733,N,05616.897659,E,,, 260325,,,A*4B
$GNRMC,033559,A,5800.584793,N,05616.895828,E,,, 260325,,,A*4C
$GNRMC,033600,A,5800.586166,N,05616.893997,E,,, 260325,,,A*4E
$GNRMC,033601,A,5800.587997,N,05616.892624,E,,, 260325,,,A*4E
$GNRMC,033602,A,5800.589142,N,05616.891708,E,,, 260325,,,A*4F
$GNRMC,033603,A,5800.590286,N,05616.890564,E,,, 260325,,,A*44
$GNRMC,033604,A,5800.591202,N,05616.889648,E,,, 260325,,,A*4B
$GNRMC,033605,A,5800.591660,N,05616.889191,E,,, 260325,,,A*49
$GNRMC,033606,A,5800.592346,N,05616.888504,E,,, 260325,,,A*41
$GNRMC,033607,A,5800.592804,N,05616.888046,E,,, 260325,,,A*4E
$GNRMC,033608,A,5800.593262,N,05616.888046,E,,, 260325,,,A*4A
$GNRMC,033609,A,5800.593719,N,05616.887589,E,,, 260325,,,A*4B
$GNRMC,033610,A,5800.593719,N,05616.887360,E,,, 260325,,,A*42
$GNRMC,033611,A,5800.594177,N,05616.887131,E,,, 260325,,,A*4C
$GNRMC,033612,A,5800.594177,N,05616.887131,E,,, 260325,,,A*4F
$GNRMC,033613,A,5800.594177,N,05616.887131,E,,, 260325,,,A*4E
$GNRMC,033614,A,5800.594177,N,05616.887131,E,,, 260325,,,A*49
$GNRMC,033615,A,5800.594177,N,05616.887131,E,,, 260325,,,A*48
$GNRMC,033616,A,5800.594177,N,05616.887131,E,,, 260325,,,A*4B
$GNRMC,033617,A,5800.594177,N,05616.887131,E,,, 260325,,,A*4A
$GNRMC,033618,A,5800.594177,N,05616.887131,E,,, 260325,,,A*45
$GNRMC,033619,A,5800.594177,N,05616.887131,E,,, 260325,,,A*44
$GNRMC,033620,A,5800.594177,N,05616.887131,E,,, 260325,,,A*4E
$GNRMC,033621,A,5800.594177,N,05616.887131,E,,, 260325,,,A*4F
$GNRMC,033622,A,5800.594177,N,05616.887131,E,,, 260325,,,A*4C
$GNRMC,033623,A,5800.594177,N,05616.887131,E,,, 260325,,,A*4D
$GNRMC,033624,A,5800.594177,N,05616.887131,E,,, 260325,,,A*4A
$GNRMC,033625,A,5800.594177,N,05616.887131,E,,, 260325,,,A*4B
$GNRMC,033626,A,5800.594177,N,05616.887131,E,,, 260325,,,A*48
$GNRMC,033627,A,5800.594177,N,05616.887131,E,,, 260325,,,A*49
$GNRMC,033628,A,5800.594177,N,05616.887131,E,,, 260325,,,A*46
$GNRMC,033629,A,5800.594177,N,05616.887131,E,,, 260325,,,A*47
$GNRMC,033630,A,5800.594177,N,05616.887131,E,,, 260325,,,A*4F
$GNRMC,033631,A,5800.594177,N,05616.887131,E,,, 260325,,,A*4E
$GNRMC,033632,A,5800.594177,N,05616.887131,E,,, 260325,,,A*4D
$GNRMC,033633,A,5800.594177,N,05616.887131,E,,, 260325,,,A*4C
$GNRMC,033634,A,5800.594406,N,05616.886902,E,,, 260325,,,A*41
$GNRMC,033635,A,5800.594864,N,05616.886444,E,,, 260325,,,A*47
$GNRMC,033636,A,5800.596695,N,05616.885071,E,,, 260325,,,A*47
$GNRMC,033637,A,5800.598068,N,05616.883698,E,,, 260325,,,A*4B
$GNRMC,033638,A,5800.600815,N,05616.881180,E,,, 260325,,,A*48
$GNRMC,033639,A,5800.603104,N,05616.879349,E,,, 260325,,,A*43
$GNRMC,033640,A,5800.606079,N,05616.876831,E,,, 260325,,,A*48
$GNRMC,033641,A,5800.608368,N,05616.874542,E,,, 260325,,,A*4F
$GNRMC,033642,A,5800.611801,N,05616.872025,E,,, 260325,,,A*42
$GNRMC,033643,A,5800.615234,N,05616.869049,E,,, 260325,,,A*4B
$GNRMC,033644,A,5800.619354,N,05616.865158,E,,, 260325,,,A*4A
$GNRMC,033645,A,5800.623474,N,05616.861267,E,,, 260325,,,A*4C
$GNRMC,033646,A,5800.628510,N,05616.857147,E,,, 260325,,,A*43
$GNRMC,033647,A,5800.633316,N,05616.852341,E,,, 260325,,,A*49
$GNRMC,033648,A,5800.638351,N,05616.847763,E,,, 260325,,,A*4E
$GNRMC,033649,A,5800.644302,N,05616.843185,E,,, 260325,,,A*48
$GNRMC,033650,A,5800.649338,N,05616.837921,E,,, 260325,,,A*41
$GNRMC,033651,A,5800.654602,N,05616.832886,E,,, 260325,,,A*49
$GNRMC,033652,A,5800.660553,N,05616.827850,E,,, 260325,,,A*45
$GNRMC,033653,A,5800.666733,N,05616.822357,E,,, 260325,,,A*4F
$GNRMC,033654,A,5800.671768,N,05616.817093,E,,, 260325,,,A*4D
$GNRMC,033655,A,5800.677719,N,05616.811829,E,,, 260325,,,A*43
$GNRMC,033656,A,5800.683441,N,05616.807022,E,,, 260325,,,A*41
$GNRMC,033657,A,5800.688705,N,05616.802216,E,,, 260325,,,A*48
$GNRMC,033658,A,5800.693741,N,05616.798325,E,,, 260325,,,A*40
$GNRMC,033659,A,5800.698776,N,05616.794662,E,,, 260325,,,A*44
$GNRMC,033700,A,5800.703583,N,05616.793060,E,,, 260325,,,A*41
$GNRMC,033701,A,5800.708847,N,05616.792145,E,,, 260325,,,A*49
$GNRMC,033702,A,5800.714111,N,05616.793060,E,,, 260325,,,A*4A
$GNRMC,033703,A,5800.720062,N,05616.795807,E,,, 260325,,,A*46
$GNRMC,033704,A,5800.725098,N,05616.799469,E,,, 260325,,,A*49
$GNRMC,033705,A,5800.731277,N,05616.802673,E,,, 260325,,,A*4A
$GNRMC,033706,A,5800.737228,N,05616.805878,E,,, 260325,,,A*47
$GNRMC,033707,A,5800.742035,N,05616.809082,E,,, 260325,,,A*4B
$GNRMC,033708,A,5800.747299,N,05616.811600,E,,, 260325,,,A*40
$GNRMC,033709,A,5800.752335,N,05616.814575,E,,, 260325,,,A*46
$GNRMC,033710,A,5800.756683,N,05616.817551,E,,, 260325,,,A*47
$GNRMC,033711,A,5800.761261,N,05616.819382,E,,, 260325,,,A*4C
$GNRMC,033712,A,5800.764923,N,05616.822128,E,,, 260325,,,A*4D
$GNRMC,033713,A,5800.768585,N,05616.824188,E,,, 260325,,,A*4C
$GNRMC,033714,A,5800.771790,N,05616.826019,E,,, 260325,,,A*4E
$GNRMC,033715,A,5800.774765,N,05616.827621,E,,, 260325,,,A*4C
$GNRMC,033716,A,5800.777740,N,05616.829224,E,,, 260325,,,A*44
$GNRMC,033717,A,5800.779800,N,05616.830826,E,,, 260325,,,A*40
$GNRMC,033718,A,5800.782547,N,05616.832428,E,,, 260325,,,A*45
$GNRMC,033719,A,5800.785065,N,05616.833572,E,,, 260325,,,A*49
$GNRMC,033720,A,5800.786438,N,05616.834030,E,,, 260325,,,A*48
$GNRMC,033721,A,5800.786896,N,05616.834717,E,,, 260325,,,A*43
$GNRMC,033722,A,5800.787811,N,05616.835632,E,,, 260325,,,A*49
$GNRMC,033723,A,5800.788498,N,05616.835861,E,,, 260325,,,A*42
$GNRMC,033724,A,5800.788498,N,05616.836319,E,,, 260325,,,A*42
$GNRMC,033725,A,5800.788498,N,05616.836777,E,,, 260325,,,A*4F
$GNRMC,033726,A,5800.788498,N,05616.837006,E,,, 260325,,,A*4C
$GNRMC,033727,A,5800.788498,N,05616.837234,E,,, 260325,,,A*4E
$GNRMC,033728,A,5800.788727,N,05616.837921,E,,, 260325,,,A*49
$GNRMC,033729,A,5800.788956,N,05616.838150,E,,, 260325,,,A*41
$GNRMC,033730,A,5800.788956,N,05616.838150,E,,, 260325,,,A*49
$GNRMC,033731,A,5800.788956,N,05616.838150,E,,, 260325,,,A*48
$GNRMC,033732,A,5800.788956,N,05616.838150,E,,, 260325,,,A*4B
$GNRMC,033733,A,5800.788956,N,05616.838150,E,,, 260325,,,A*4A
$GNRMC,033734,A,5800.788956,N,05616.838150,E,,, 260325,,,A*4D
$GNRMC,033735,A,5800.788956,N,05616.838150,E,,, 260325,,,A*4C
$GNRMC,033736,A,5800.788956,N,05616.838150,E,,, 260325,,,A*4F
$GNRMC,033737,A,5800.788956,N,05616.838150,E,,, 260325,,,A*4E
$GNRMC,033738,A,5800.788956,N,05616.838150,E,,, 260325,,,A*41
$GNRMC,033739,A,5800.788956,N,05616.838150,E,,, 260325,,,A*40
$GNRMC,033740,A,5800.788956,N,05616.838150,E,,, 260325,,,A*4E
$GNRMC,033741,A,5800.788956,N,05616.838150,E,,, 260325,,,A*4F
$GNRMC,033742,A,5800.788956,N,05616.838150,E,,, 260325,,,A*4C
$GNRMC,033743,A,5800.788956,N,05616.838150,E,,, 260325,,,A*4D
$GNRMC,033744,A,5800.788956,N,05616.838150,E,,, 260325,,,A*4A
$GNRMC,033745,A,5800.788956,N,05616.838150,E,,, 260325,,,A*4B
$GNRMC,033746,A,5800.788956,N,05616.838150,E,,, 260325,,,A*48
$GNRMC,033747,A,5800.788956,N,05616.838150,E,,, 260325,,,A*49
$GNRMC,033748,A,5800.788956,N,05616.838150,E,,, 260325,,,A*46
$GNRMC,033749,A,5800.788956,N,05616.838150,E,,, 260325,,,A*47
$GNRMC,033750,A,5800.788956,N,05616.838150,E,,, 260325,,,A*4F
$GNRMC,033751,A,5800.788956,N,05616.838150,E,,, 260325,,,A*4E
$GNRMC,033752,A,5800.788956,N,05616.838150,E,,, 260325,,,A*4D
$GNRMC,033753,A,5800.788956,N,05616.838150,E,,, 260325,,,A*4C
$GNRMC,033754,A,5800.788956,N,05616.838150,E,,, 260325,,,A*4B
$GNRMC,033755,A,5800.788956,N,05616.838150,E,,, 260325,,,A*4A
$GNRMC,033756,A,5800.788956,N,05616.838150,E,,, 260325,,,A*49
$GNRMC,033757,A,5800.788956,N,05616.838150,E,,, 260325,,,A*48
$GNRMC,033758,A,5800.788956,N,05616.838150,E,,, 260325,,,A*47
$GNRMC,033759,A,5800.788956,N,05616.838150,E,,, 260325,,,A*46
$GNRMC,033800,A,5800.788956,N,05616.838150,E,,, 260325,,,A*45
$GNRMC,033801,A,5800.788956,N,05616.838150,E,,, 260325,,,A*44
$GNRMC,033802,A,5800.788956,N,05616.838150,E,,, 260325,,,A*47
$GNRMC,033803,A,5800.788956,N,05616.838150,E,,, 260325,,,A*46
$GNRMC,033804,A,5800.788956,N,05616.838150,E,,, 260325,,,A*41
$GNRMC,033805,A,5800.788956,N,05616.838150,E,,, 260325,,,A*40
$GNRMC,033806,A,5800.788956,N,05616.838150,E,,, 260325,,,A*43
$GNRMC,033807,A,5800.788956,N,05616.838150,E,,, 260325,,,A*42
$GNRMC,033808,A,5800.788956,N,05616.838150,E,,, 260325,,,A*4D
$GNRMC,033809,A,5800.788956,N,05616.838150,E,,, 260325,,,A*4C
$GNRMC,033810,A,5800.788956,N,05616.838150,E,,, 260325,,,A*44
$GNRMC,033811,A,5800.788956,N,05616.838150,E,,, 260325,,,A*45
$GNRMC,033812,A,5800.788956,N,05616.838150,E,,, 260325,,,A*46
$GNRMC,033813,A,5800.788956,N,05616.838150,E,,, 260325,,,A*47
$GNRMC,033814,A,5800.788956,N,05616.838150,E,,, 260325,,,A*40
$GNRMC,033815,A,5800.788956,N,05616.838150,E,,, 260325,,,A*41
$GNRMC,033816,A,5800.788956,N,05616.838150,E,,, 260325,,,A*42
$GNRMC,033817,A,5800.788956,N,05616.838150,E,,, 260325,,,A*43
$GNRMC,033818,A,5800.788956,N,05616.838150,E,,, 260325,,,A*4C
$GNRMC,033819,A,5800.788956,N,05616.838150,E,,, 260325,,,A*4D
$GNRMC,033820,A,5800.788956,N,05616.838150,E,,, 260325,,,A*47
$GNRMC,033821,A,5800.788956,N,05616.838150,E,,, 260325,,,A*46
$GNRMC,033822,A,5800.788956,N,05616.838150,E,,, 260325,,,A*45
$GNRMC,033823,A,5800.788956,N,05616.838150,E,,, 260325,,,A*44
$GNRMC,033824,A,5800.788956,N,05616.838150,E,,, 260325,,,A*43
$GNRMC,033825,A,5800.788956,N,05616.838150,E,,, 260325,,,A*42
$GNRMC,033826,A,5800.788956,N,05616.838150,E,,, 260325,,,A*41
$GNRMC,033827,A,5800.788956,N,05616.838150,E,,, 260325,,,A*40
$GNRMC,033828,A,5800.788956,N,05616.838150,E,,, 260325,,,A*4F
$GNRMC,033829,A,5800.788956,N,05616.838150,E,,, 260325,,,A*4E
$GNRMC,033830,A,5800.788956,N,05616.838150,E,,, 260325,,,A*46
$GNRMC,033831,A,5800.788956,N,05616.838150,E,,, 260325,,,A*47
$GNRMC,033832,A,5800.788956,N,05616.838150,E,,, 260325,,,A*44
$GNRMC,033833,A,5800.788956,N,05616.838150,E,,, 260325,,,A*45
$GNRMC,033834,A,5800.788956,N,05616.838150,E,,, 260325,,,A*42
$GNRMC,033835,A,5800.788956,N,05616.838150,E,,, 260325,,,A*43
$GNRMC,033836,A,5800.788956,N,05616.838150,E,,, 260325,,,A*40
$GNRMC,033837,A,5800.788956,N,05616.838150,E,,, 260325,,,A*41
$GNRMC,033838,A,5800.788956,N,05616.838150,E,,, 260325,,,A*4E
$GNRMC,033839,A,5800.788956,N,05616.838150,E,,, 260325,,,A*4F
$GNRMC,033840,A,5800.788956,N,05616.838150,E,,, 260325,,,A*41
$GNRMC,033841,A,5800.788956,N,05616.838150,E,,, 260325,,,A*40
$GNRMC,033842,A,5800.788956,N,05616.838150,E,,, 260325,,,A*43
$GNRMC,033843,A,5800.788956,N,05616.838150,E,,, 260325,,,A*42
$GNRMC,033844,A,5800.788956,N,05616.838150,E,,, 260325,,,A*45
$GNRMC,033845,A,5800.788956,N,05616.838150,E,,, 260325,,,A*44
$GNRMC,033846,A,5800.788956,N,05616.838150,E,,, 260325,,,A*47
$GNRMC,033847,A,5800.788956,N,05616.838150,E,,, 260325,,,A*46
$GNRMC,033848,A,5800.788956,N,05616.838150,E,,, 260325,,,A*49
$GNRMC,033849,A,5800.788956,N,05616.838150,E,,, 260325,,,A*48
$GNRMC,033850,A,5800.788956,N,05616.838150,E,,, 260325,,,A*40
$GNRMC,033851,A,5800.788956,N,05616.838150,E,,, 260325,,,A*41
$GNRMC,033852,A,5800.788956,N,05616.838150,E,,, 260325,,,A*42
$GNRMC,033853,A,5800.788956,N,05616.838150,E,,, 260325,,,A*43
$GNRMC,033854,A,5800.788956,N,05616.838150,E,,, 260325,,,A*44
$GNRMC,033855,A,5800.788956,N,05616.838150,E,,, 260325,,,A*45
$GNRMC,033856,A,5800.788956,N,05616.838150,E,,, 260325,,,A*46
$GNRMC,033857,A,5800.788956,N,05616.838150,E,,, 260325,,,A*47
$GNRMC,033858,A,5800.788956,N,05616.838150,E,,, 260325,,,A*48
$GNRMC,033859,A,5800.788956,N,05616.838150,E,,, 260325,,,A*49
$GNRMC,033900,A,5800.788956,N,05616.838150,E,,, 260325,,,A*44
$GNRMC,033901,A,5800.788956,N,05616.838150,E,,, 260325,,,A*45
$GNRMC,033902,A,5800.788956,N,05616.838150,E,,, 260325,,,A*46
$GNRMC,033903,A,5800.788956,N,05616.838150,E,,, 260325,,,A*47
$GNRMC,033904,A,5800.788956,N,05616.838150,E,,, 260325,,,A*40
$GNRMC,033905,A,5800.788956,N,05616.838150,E,,, 260325,,,A*41
$GNRMC,033906,A,5800.788956,N,05616.838150,E,,, 260325,,,A*42
$GNRMC,033907,A,5800.788956,N,05616.838150,E,,, 260325,,,A*43
$GNRMC,033908,A,5800.788956,N,05616.838150,E,,, 260325,,,A*4C
$GNRMC,033909,A,5800.788956,N,05616.838150,E,,, 260325,,,A*4D
$GNRMC,033910,A,5800.788956,N,05616.838150,E,,, 260325,,,A*45
$GNRMC,033911,A,5800.788956,N,05616.838150,E,,, 260325,,,A*44
$GNRMC,033912,A,5800.788956,N,05616.838150,E,,, 260325,,,A*47
$GNRMC,033913,A,5800.788956,N,05616.838150,E,,, 260325,,,A*46
$GNRMC,033914,A,5800.788956,N,05616.838150,E,,, 260325,,,A*41
$GNRMC,033915,A,5800.788956,N,05616.838150,E,,, 260325,,,A*40
$GNRMC,033916,A,5800.788956,N,05616.838150,E,,, 260325,,,A*43
$GNRMC,033917,A,5800.788956,N,05616.838150,E,,, 260325,,,A*42
$GNRMC,033918,A,5800.788956,N,05616.838150,E,,, 260325,,,A*4D
$GNRMC,033919,A,5800.788956,N,05616.838150,E,,, 260325,,,A*4C
$GNRMC,033920,A,5800.788956,N,05616.838150,E,,, 260325,,,A*46
$GNRMC,033921,A,5800.788956,N,05616.838150,E,,, 260325,,,A*47
$GNRMC,033922,A,5800.788956,N,05616.838150,E,,, 260325,,,A*44
$GNRMC,033923,A,5800.788956,N,05616.838150,E,,, 260325,,,A*45
$GNRMC,033924,A,5800.788956,N,05616.838150,E,,, 260325,,,A*42
$GNRMC,033925,A,5800.788956,N,05616.838150,E,,, 260325,,,A*43
$GNRMC,033926,A,5800.788956,N,05616.838150,E,,, 260325,,,A*40
$GNRMC,033927,A,5800.788956,N,05616.838150,E,,, 260325,,,A*41
$GNRMC,033928,A,5800.788956,N,05616.838150,E,,, 260325,,,A*4E
$GNRMC,033929,A,5800.788956,N,05616.838150,E,,, 260325,,,A*4F
$GNRMC,033930,A,5800.788956,N,05616.838150,E,,, 260325,,,A*47
$GNRMC,033931,A,5800.788956,N,05616.838150,E,,, 260325,,,A*46
$GNRMC,033932,A,5800.788956,N,05616.838150,E,,, 260325,,,A*45
$GNRMC,033933,A,5800.788956,N,05616.838150,E,,, 260325,,,A*44
$GNRMC,033934,A,5800.788956,N,05616.838150,E,,, 260325,,,A*43
$GNRMC,033935,A,5800.788956,N,05616.838150,E,,, 260325,,,A*42
$GNRMC,033936,A,5800.788956,N,05616.838150,E,,, 260325,,,A*41
$GNRMC,033937,A,5800.788956,N,05616.838150,E,,, 260325,,,A*40
$GNRMC,033938,A,5800.788956,N,05616.838150,E,,, 260325,,,A*4F
$GNRMC,033939,A,5800.788956,N,05616.838150,E,,, 260325,,,A*4E
$GNRMC,033940,A,5800.788956,N,05616.838150,E,,, 260325,,,A*40
$GNRMC,033941,A,5800.788956,N,05616.838150,E,,, 260325,,,A*41
$GNRMC,033942,A,5800.788956,N,05616.838150,E,,, 260325,,,A*42
$GNRMC,033943,A,5800.788956,N,05616.838150,E,,, 260325,,,A*43
$GNRMC,033944,A,5800.788956,N,05616.838150,E,,, 260325,,,A*44
$GNRMC,033945,A,5800.788956,N,05616.838150,E,,, 260325,,,A*45
$GNRMC,033946,A,5800.788956,N,05616.838150,E,,, 260325,,,A*46
$GNRMC,033947,A,5800.788956,N,05616.838150,E,,, 260325,,,A*47
$GNRMC,033948,A,5800.788956,N,05616.838150,E,,, 260325,,,A*48
$GNRMC,033949,A,5800.788956,N,05616.838150,E,,, 260325,,,A*49
$GNRMC,033950,A,5800.788956,N,05616.838150,E,,, 260325,,,A*41
$GNRMC,033951,A,5800.788956,N,05616.838150,E,,, 260325,,,A*40
$GNRMC,033952,A,5800.788956,N,05616.838150,E,,, 260325,,,A*43
$GNRMC,033953,A,5800.788956,N,05616.838150,E,,, 260325,,,A*42
$GNRMC,033954,A,5800.788956,N,05616.838150,E,,, 260325,,,A*45
$GNRMC,033955,A,5800.788956,N,05616.838150,E,,, 260325,,,A*44
$GNRMC,033956,A,5800.788956,N,05616.838150,E,,, 260325,,,A*47
$GNRMC,033957,A,5800.788956,N,05616.838150,E,,, 260325,,,A*46
$GNRMC,033958,A,5800.788956,N,05616.838150,E,,, 260325,,,A*49
$GNRMC,033959,A,5800.788956,N,05616.838150,E,,, 260325,,,A*48
$GNRMC,034000,A,5800.788956,N,05616.838150,E,,, 260325,,,A*4A
$GNRMC,034001,A,5800.788956,N,05616.838150,E,,, 260325,,,A*4B
$GNRMC,034002,A,5800.788956,N,05616.838150,E,,, 260325,,,A*48
$GNRMC,034003,A,5800.788956,N,05616.838150,E,,, 260325,,,A*49
$GNRMC,034004,A,5800.788956,N,05616.838150,E,,, 260325,,,A*4E
$GNRMC,034005,A,5800.788956,N,05616.838150,E,,, 260325,,,A*4F
$GNRMC,034006,A,5800.788956,N,05616.838150,E,,, 260325,,,A*4C
$GNRMC,034007,A,5800.788956,N,05616.838150,E,,, 260325,,,A*4D
$GNRMC,034008,A,5800.788956,N,05616.838150,E,,, 260325,,,A*42
$GNRMC,034009,A,5800.788956,N,05616.838150,E,,, 260325,,,A*43
$GNRMC,034010,A,5800.788956,N,05616.838150,E,,, 260325,,,A*4B
$GNRMC,034011,A,5800.788956,N,05616.838150,E,,, 260325,,,A*4A
$GNRMC,034012,A,5800.788956,N,05616.838150,E,,, 260325,,,A*49
$GNRMC,034013,A,5800.788956,N,05616.838150,E,,, 260325,,,A*48
$GNRMC,034014,A,5800.788956,N,05616.838150,E,,, 260325,,,A*4F
$GNRMC,034015,A,5800.788956,N,05616.838150,E,,, 260325,,,A*4E
$GNRMC,034016,A,5800.788956,N,05616.838150,E,,, 260325,,,A*4D
$GNRMC,034017,A,5800.788956,N,05616.838150,E,,, 260325,,,A*4C
$GNRMC,034018,A,5800.788956,N,05616.838150,E,,, 260325,,,A*43
$GNRMC,034019,A,5800.788956,N,05616.838150,E,,, 260325,,,A*42
$GNRMC,034020,A,5800.788956,N,05616.838150,E,,, 260325,,,A*48
$GNRMC,034021,A,5800.788956,N,05616.838150,E,,, 260325,,,A*49
$GNRMC,034022,A,5800.788956,N,05616.838150,E,,, 260325,,,A*4A
$GNRMC,034023,A,5800.788956,N,05616.838150,E,,, 260325,,,A*4B
$GNRMC,034024,A,5800.788956,N,05616.838150,E,,, 260325,,,A*4C
$GNRMC,034025,A,5800.788956,N,05616.838150,E,,, 260325,,,A*4D
$GNRMC,034026,A,5800.788956,N,05616.838150,E,,, 260325,,,A*4E
$GNRMC,034027,A,5800.788956,N,05616.838150,E,,, 260325,,,A*4F
$GNRMC,034028,A,5800.788956,N,05616.838150,E,,, 260325,,,A*40
$GNRMC,034029,A,5800.788956,N,05616.838150,E,,, 260325,,,A*41
$GNRMC,034030,A,5800.788956,N,05616.838150,E,,, 260325,,,A*49
$GNRMC,034031,A,5800.788956,N,05616.838150,E,,, 260325,,,A*48
$GNRMC,034032,A,5800.788956,N,05616.838150,E,,, 260325,,,A*4B
$GNRMC,034033,A,5800.788956,N,05616.838150,E,,, 260325,,,A*4A
$GNRMC,034034,A,5800.788956,N,05616.838150,E,,, 260325,,,A*4D
$GNRMC,034035,A,5800.788956,N,05616.838150,E,,, 260325,,,A*4C
$GNRMC,034036,A,5800.788956,N,05616.838150,E,,, 260325,,,A*4F
$GNRMC,034037,A,5800.788956,N,05616.838150,E,,, 260325,,,A*4E
$GNRMC,034038,A,5800.788956,N,05616.838150,E,,, 260325,,,A*41
$GNRMC,034039,A,5800.788956,N,05616.838150,E,,, 260325,,,A*40
$GNRMC,034040,A,5800.788956,N,05616.838150,E,,, 260325,,,A*4E
$GNRMC,034041,A,5800.788956,N,05616.838150,E,,, 260325,,,A*4F
$GNRMC,034042,A,5800.788956,N,05616.838150,E,,, 260325,,,A*4C
$GNRMC,034043,A,5800.788956,N,05616.838150,E,,, 260325,,,A*4D
$GNRMC,034044,A,5800.788956,N,05616.838150,E,,, 260325,,,A*4A
$GNRMC,034045,A,5800.788956,N,05616.838150,E,,, 260325,,,A*4B
$GNRMC,034046,A,5800.788956,N,05616.838150,E,,, 260325,,,A*48
$GNRMC,034047,A,5800.788956,N,05616.838150,E,,, 260325,,,A*49
$GNRMC,034048,A,5800.788956,N,05616.838150,E,,, 260325,,,A*46
$GNRMC,034049,A,5800.788956,N,05616.838150,E,,, 260325,,,A*47
$GNRMC,034050,A,5800.788956,N,05616.838150,E,,, 260325,,,A*4F
$GNRMC,034051,A,5800.788956,N,05616.838150,E,,, 260325,,,A*4E
$GNRMC,034052,A,5800.788956,N,05616.838150,E,,, 260325,,,A*4D
$GNRMC,034053,A,5800.788956,N,05616.838150,E,,, 260325,,,A*4C
$GNRMC,034054,A,5800.788956,N,05616.838150,E,,, 260325,,,A*4B
$GNRMC,034055,A,5800.788956,N,05616.838150,E,,, 260325,,,A*4A
$GNRMC,034056,A,5800.788956,N,05616.838150,E,,, 260325,,,A*49
$GNRMC,034057,A,5800.788956,N,05616.838150,E,,, 260325,,,A*48
$GNRMC,034058,A,5800.788956,N,05616.838150,E,,, 260325,,,A*47
$GNRMC,034059,A,5800.788956,N,05616.838150,E,,, 260325,,,A*46
$GNRMC,034100,A,5800.788956,N,05616.838150,E,,, 260325,,,A*4B
$GNRMC,034101,A,5800.788956,N,05616.838150,E,,, 260325,,,A*4A
$GNRMC,034102,A,5800.788956,N,05616.838150,E,,, 260325,,,A*49
$GNRMC,034103,A,5800.788956,N,05616.838150,E,,, 260325,,,A*48
$GNRMC,034104,A,5800.788956,N,05616.838150,E,,, 260325,,,A*4F
$GNRMC,034105,A,5800.788956,N,05616.838150,E,,, 260325,,,A*4E
$GNRMC,034106,A,5800.788956,N,05616.838150,E,,, 260325,,,A*4D
$GNRMC,034107,A,5800.788956,N,05616.838150,E,,, 260325,,,A*4C
$GNRMC,034108,A,5800.788956,N,05616.838150,E,,, 260325,,,A*43
$GNRMC,034109,A,5800.788956,N,05616.838150,E,,, 260325,,,A*42
$GNRMC,034110,A,5800.788956,N,05616.838150,E,,, 260325,,,A*4A
$GNRMC,034111,A,5800.788956,N,05616.838150,E,,, 260325,,,A*4B
$GNRMC,034112,A,5800.788956,N,05616.838150,E,,, 260325,,,A*48
$GNRMC,034113,A,5800.788956,N,05616.838150,E,,, 260325,,,A*49
$GNRMC,034114,A,5800.788956,N,05616.838150,E,,, 260325,,,A*4E
$GNRMC,034115,A,5800.788956,N,05616.838150,E,,, 260325,,,A*4F
$GNRMC,034116,A,5800.788956,N,05616.838150,E,,, 260325,,,A*4C
$GNRMC,034117,A,5800.788956,N,05616.838150,E,,, 260325,,,A*4D
$GNRMC,034118,A,5800.788956,N,05616.838150,E,,, 260325,,,A*42
$GNRMC,034119,A,5800.788956,N,05616.838150,E,,, 260325,,,A*43
$GNRMC,034120,A,5800.788956,N,05616.838150,E,,, 260325,,,A*49
$GNRMC,034121,A,5800.788956,N,05616.838150,E,,, 260325,,,A*48
$GNRMC,034122,A,5800.788956,N,05616.838150,E,,, 260325,,,A*4B
$GNRMC,034123,A,5800.788956,N,05616.838150,E,,, 260325,,,A*4A
$GNRMC,034124,A,5800.788956,N,05616.838150,E,,, 260325,,,A*4D
$GNRMC,034125,A,5800.788956,N,05616.838150,E,,, 260325,,,A*4C
$GNRMC,034126,A,5800.788956,N,05616.838150,E,,, 260325,,,A*4F
$GNRMC,034127,A,5800.788956,N,05616.838150,E,,, 260325,,,A*4E
$GNRMC,034128,A,5800.788956,N,05616.838150,E,,, 260325,,,A*41
$GNRMC,034129,A,5800.788956,N,05616.838150,E,,, 260325,,,A*40
$GNRMC,034130,A,5800.788956,N,05616.838150,E,,, 260325,,,A*48
$GNRMC,034131,A,5800.788956,N,05616.838150,E,,, 260325,,,A*49
$GNRMC,034132,A,5800.788956,N,05616.838150,E,,, 260325,,,A*4A
$GNRMC,034133,A,5800.788956,N,05616.838150,E,,, 260325,,,A*4B
$GNRMC,034134,A,5800.788956,N,05616.838150,E,,, 260325,,,A*4C
$GNRMC,034135,A,5800.788956,N,05616.838150,E,,, 260325,,,A*4D
$GNRMC,034136,A,5800.788956,N,05616.838150,E,,, 260325,,,A*4E
$GNRMC,034137,A,5800.788956,N,05616.838150,E,,, 260325,,,A*4F
$GNRMC,034138,A,5800.788956,N,05616.838150,E,,, 260325,,,A*40
$GNRMC,034139,A,5800.788956,N,05616.838150,E,,, 260325,,,A*41
$GNRMC,034140,A,5800.788956,N,05616.838150,E,,, 260325,,,A*4F
$GNRMC,034141,A,5800.788956,N,05616.838150,E,,, 260325,,,A*4E
$GNRMC,034142,A,5800.788956,N,05616.838150,E,,, 260325,,,A*4D
$GNRMC,034143,A,5800.788956,N,05616.838150,E,,, 260325,,,A*4C
$GNRMC,034144,A,5800.788956,N,05616.838150,E,,, 260325,,,A*4B
$GNRMC,034145,A,5800.788956,N,05616.838150,E,,, 260325,,,A*4A
$GNRMC,034146,A,5800.788956,N,05616.838150,E,,, 260325,,,A*49
$GNRMC,034147,A,5800.788956,N,05616.838150,E,,, 260325,,,A*48
$GNRMC,034148,A,5800.788956,N,05616.838150,E,,, 260325,,,A*47
$GNRMC,034149,A,5800.788956,N,05616.838150,E,,, 260325,,,A*46
$GNRMC,034150,A,5800.788956,N,05616.838150,E,,, 260325,,,A*4E
$GNRMC,034151,A,5800.788956,N,05616.838150,E,,, 260325,,,A*4F
$GNRMC,034152,A,5800.788956,N,05616.838150,E,,, 260325,,,A*4C
$GNRMC,034153,A,5800.788956,N,05616.838150,E,,, 260325,,,A*4D
$GNRMC,034154,A,5800.788956,N,05616.838150,E,,, 260325,,,A*4A
$GNRMC,034155,A,5800.788956,N,05616.838150,E,,, 260325,,,A*4B
$GNRMC,034156,A,5800.788956,N,05616.838150,E,,, 260325,,,A*48
$GNRMC,034157,A,5800.788956,N,05616.838150,E,,, 260325,,,A*49
$GNRMC,034158,A,5800.788956,N,05616.838150,E,,, 260325,,,A*46
$GNRMC,034159,A,5800.788956,N,05616.838150,E,,, 260325,,,A*47
$GNRMC,034200,A,5800.788956,N,05616.838150,E,,, 260325,,,A*48
$GNRMC,034201,A,5800.788956,N,05616.838150,E,,, 260325,,,A*49
$GNRMC,034202,A,5800.788956,N,05616.838150,E,,, 260325,,,A*4A
$GNRMC,034203,A,5800.788956,N,05616.838150,E,,, 260325,,,A*4B
$GNRMC,034204,A,5800.788956,N,05616.838150,E,,, 260325,,,A*4C
$GNRMC,034205,A,5800.788956,N,05616.838150,E,,, 260325,,,A*4D
$GNRMC,034206,A,5800.788956,N,05616.838150,E,,, 260325,,,A*4E
$GNRMC,034207,A,5800.788956,N,05616.838150,E,,, 260325,,,A*4F
$GNRMC,034208,A,5800.788956,N,05616.838150,E,,, 260325,,,A*40
$GNRMC,034209,A,5800.788956,N,05616.838150,E,,, 260325,,,A*41
$GNRMC,034210,A,5800.788956,N,05616.838150,E,,, 260325,,,A*49
$GNRMC,034211,A,5800.788956,N,05616.838150,E,,, 260325,,,A*48
$GNRMC,034212,A,5800.788956,N,05616.838150,E,,, 260325,,,A*4B
$GNRMC,034213,A,5800.788956,N,05616.838150,E,,, 260325,,,A*4A
$GNRMC,034214,A,5800.788956,N,05616.838150,E,,, 260325,,,A*4D
$GNRMC,034215,A,5800.788956,N,05616.838150,E,,, 260325,,,A*4C
$GNRMC,034216,A,5800.788956,N,05616.838150,E,,, 260325,,,A*4F
$GNRMC,034217,A,5800.788956,N,05616.838150,E,,, 260325,,,A*4E
$GNRMC,034218,A,5800.788956,N,05616.838150,E,,, 260325,,,A*41
$GNRMC,034219,A,5800.788956,N,05616.838150,E,,, 260325,,,A*40
$GNRMC,034220,A,5800.788956,N,05616.838150,E,,, 260325,,,A*4A
$GNRMC,034221,A,5800.788956,N,05616.838150,E,,, 260325,,,A*4B
$GNRMC,034222,A,5800.788956,N,05616.838150,E,,, 260325,,,A*48
$GNRMC,034223,A,5800.788956,N,05616.838150,E,,, 260325,,,A*49
$GNRMC,034224,A,5800.788956,N,05616.838150,E,,, 260325,,,A*4E
$GNRMC,034225,A,5800.788956,N,05616.838150,E,,, 260325,,,A*4F
$GNRMC,034226,A,5800.788956,N,05616.838150,E,,, 260325,,,A*4C
$GNRMC,034227,A,5800.788956,N,05616.838150,E,,, 260325,,,A*4D
$GNRMC,034228,A,5800.788956,N,05616.838150,E,,, 260325,,,A*42
$GNRMC,034229,A,5800.788956,N,05616.838150,E,,, 260325,,,A*43
$GNRMC,034230,A,5800.788956,N,05616.838150,E,,, 260325,,,A*4B
$GNRMC,034231,A,5800.788956,N,05616.838150,E,,, 260325,,,A*4A
$GNRMC,034232,A,5800.788956,N,05616.838150,E,,, 260325,,,A*49
$GNRMC,034233,A,5800.788956,N,05616.838150,E,,, 260325,,,A*48
$GNRMC,034234,A,5800.788956,N,05616.838150,E,,, 260325,,,A*4F
$GNRMC,034235,A,5800.788956,N,05616.838150,E,,, 260325,,,A*4E
$GNRMC,034236,A,5800.788956,N,05616.838150,E,,, 260325,,,A*4D
$GNRMC,034237,A,5800.788956,N,05616.838150,E,,, 260325,,,A*4C
$GNRMC,034238,A,5800.788956,N,05616.838150,E,,, 260325,,,A*43
$GNRMC,034239,A,5800.788956,N,05616.838150,E,,, 260325,,,A*42
$GNRMC,034240,A,5800.788956,N,05616.838150,E,,, 260325,,,A*4C
$GNRMC,034241,A,5800.788956,N,05616.838150,E,,, 260325,,,A*4D
$GNRMC,034242,A,5800.788956,N,05616.838150,E,,, 260325,,,A*4E
$GNRMC,034243,A,5800.788956,N,05616.838150,E,,, 260325,,,A*4F
$GNRMC,034244,A,5800.788956,N,05616.838150,E,,, 260325,,,A*48
$GNRMC,034245,A,5800.788956,N,05616.838150,E,,, 260325,,,A*49
$GNRMC,034246,A,5800.788956,N,05616.838150,E,,, 260325,,,A*4A
$GNRMC,034247,A,5800.788956,N,05616.838150,E,,, 260325,,,A*4B
$GNRMC,034248,A,5800.788956,N,05616.838150,E,,, 260325,,,A*44
$GNRMC,034249,A,5800.788956,N,05616.838150,E,,, 260325,,,A*45
$GNRMC,034250,A,5800.788956,N,05616.838150,E,,, 260325,,,A*4D
$GNRMC,034251,A,5800.788956,N,05616.838150,E,,, 260325,,,A*4C
$GNRMC,034252,A,5800.788956,N,05616.838150,E,,, 260325,,,A*4F
$GNRMC,034253,A,5800.788956,N,05616.838150,E,,, 260325,,,A*4E
$GNRMC,034254,A,5800.788956,N,05616.838150,E,,, 260325,,,A*49
$GNRMC,034255,A,5800.788956,N,05616.838150,E,,, 260325,,,A*48
$GNRMC,034256,A,5800.788956,N,05616.838150,E,,, 260325,,,A*4B
$GNRMC,034257,A,5800.788956,N,05616.838150,E,,, 260325,,,A*4A
$GNRMC,034258,A,5800.788956,N,05616.838150,E,,, 260325,,,A*45
$GNRMC,034259,A,5800.788956,N,05616.838150,E,,, 260325,,,A*44
$GNRMC,034300,A,5800.788956,N,05616.838150,E,,, 260325,,,A*49
$GNRMC,034301,A,5800.788956,N,05616.838150,E,,, 260325,,,A*48
$GNRMC,034302,A,5800.788956,N,05616.838150,E,,, 260325,,,A*4B
$GNRMC,034303,A,5800.788956,N,05616.838150,E,,, 260325,,,A*4A
$GNRMC,034304,A,5800.788956,N,05616.838150,E,,, 260325,,,A*4D
$GNRMC,034305,A,5800.788956,N,05616.838150,E,,, 260325,,,A*4C
$GNRMC,034306,A,5800.788956,N,05616.838150,E,,, 260325,,,A*4F
$GNRMC,034307,A,5800.788956,N,05616.838150,E,,, 260325,,,A*4E
$GNRMC,034308,A,5800.788956,N,05616.838150,E,,, 260325,,,A*41
$GNRMC,034309,A,5800.788956,N,05616.838150,E,,, 260325,,,A*40
$GNRMC,034310,A,5800.788956,N,05616.838150,E,,, 260325,,,A*48
$GNRMC,034311,A,5800.788956,N,05616.838150,E,,, 260325,,,A*49
$GNRMC,034312,A,5800.788956,N,05616.838150,E,,, 260325,,,A*4A
$GNRMC,034313,A,5800.788956,N,05616.838150,E,,, 260325,,,A*4B
$GNRMC,034314,A,5800.788956,N,05616.838150,E,,, 260325,,,A*4C
$GNRMC,034315,A,5800.788956,N,05616.838150,E,,, 260325,,,A*4D
$GNRMC,034316,A,5800.788956,N,05616.838150,E,,, 260325,,,A*4E
$GNRMC,034317,A,5800.788956,N,05616.838150,E,,, 260325,,,A*4F
$GNRMC,034318,A,5800.788956,N,05616.838150,E,,, 260325,,,A*40
$GNRMC,034319,A,5800.788956,N,05616.838150,E,,, 260325,,,A*41
$GNRMC,034320,A,5800.788956,N,05616.838150,E,,, 260325,,,A*4B
$GNRMC,034321,A,5800.788956,N,05616.838150,E,,, 260325,,,A*4A
$GNRMC,034322,A,5800.788956,N,05616.838150,E,,, 260325,,,A*49
$GNRMC,034323,A,5800.788956,N,05616.838150,E,,, 260325,,,A*48
$GNRMC,034324,A,5800.788956,N,05616.838150,E,,, 260325,,,A*4F
$GNRMC,034325,A,5800.788956,N,05616.838150,E,,, 260325,,,A*4E
$GNRMC,034326,A,5800.788956,N,05616.838150,E,,, 260325,,,A*4D
$GNRMC,034327,A,5800.788956,N,05616.838150,E,,, 260325,,,A*4C
$GNRMC,034328,A,5800.788956,N,05616.838150,E,,, 260325,,,A*43
$GNRMC,034329,A,5800.788956,N,05616.838150,E,,, 260325,,,A*42
$GNRMC,034330,A,5800.788956,N,05616.838150,E,,, 260325,,,A*4A
$GNRMC,034331,A,5800.788956,N,05616.838150,E,,, 260325,,,A*4B
$GNRMC,034332,A,5800.788956,N,05616.838150,E,,, 260325,,,A*48
$GNRMC,034333,A,5800.788956,N,05616.838150,E,,, 260325,,,A*49
$GNRMC,034334,A,5800.788956,N,05616.838150,E,,, 260325,,,A*4E
$GNRMC,034335,A,5800.788956,N,05616.838150,E,,, 260325,,,A*4F
$GNRMC,034336,A,5800.788956,N,05616.838150,E,,, 260325,,,A*4C
$GNRMC,034337,A,5800.788956,N,05616.838150,E,,, 260325,,,A*4D
$GNRMC,034338,A,5800.788956,N,05616.838150,E,,, 260325,,,A*42
$GNRMC,034339,A,5800.788956,N,05616.838150,E,,, 260325,,,A*43
$GNRMC,034340,A,5800.788956,N,05616.838150,E,,, 260325,,,A*4D
$GNRMC,034341,A,5800.788956,N,05616.838150,E,,, 260325,,,A*4C
$GNRMC,034342,A,5800.788956,N,05616.838150,E,,, 260325,,,A*4F
$GNRMC,034343,A,5800.788956,N,05616.838150,E,,, 260325,,,A*4E
$GNRMC,034344,A,5800.788956,N,05616.838150,E,,, 260325,,,A*49
$GNRMC,034345,A,5800.788956,N,05616.838150,E,,, 260325,,,A*48
$GNRMC,034346,A,5800.788956,N,05616.838150,E,,, 260325,,,A*4B
$GNRMC,034347,A,5800.788956,N,05616.838150,E,,, 260325,,,A*4A
$GNRMC,034348,A,5800.788956,N,05616.838150,E,,, 260325,,,A*45
$GNRMC,034349,A,5800.788956,N,05616.838150,E,,, 260325,,,A*44
$GNRMC,034350,A,5800.788956,N,05616.838150,E,,, 260325,,,A*4C
$GNRMC,034351,A,5800.788956,N,05616.838150,E,,, 260325,,,A*4D
$GNRMC,034352,A,5800.788956,N,05616.838150,E,,, 260325,,,A*4E
$GNRMC,034353,A,5800.788956,N,05616.838150,E,,, 260325,,,A*4F
$GNRMC,034354,A,5800.788956,N,05616.838150,E,,, 260325,,,A*48
$GNRMC,034355,A,5800.788956,N,05616.838150,E,,, 260325,,,A*49
$GNRMC,034356,A,5800.788956,N,05616.838150,E,,, 260325,,,A*4A
$GNRMC,034357,A,5800.788956,N,05616.838150,E,,, 260325,,,A*4B
$GNRMC,034358,A,5800.788956,N,05616.838150,E,,, 260325,,,A*44
$GNRMC,034359,A,5800.788956,N,05616.838150,E,,, 260325,,,A*45
$GNRMC,034400,A,5800.788956,N,05616.838150,E,,, 260325,,,A*4E
$GNRMC,034401,A,5800.788956,N,05616.838150,E,,, 260325,,,A*4F
$GNRMC,034402,A,5800.788956,N,05616.838150,E,,, 260325,,,A*4C
$GNRMC,034403,A,5800.788956,N,05616.838150,E,,, 260325,,,A*4D
$GNRMC,034404,A,5800.788956,N,05616.838150,E,,, 260325,,,A*4A
$GNRMC,034405,A,5800.788956,N,05616.838150,E,,, 260325,,,A*4B
$GNRMC,034406,A,5800.788956,N,05616.838150,E,,, 260325,,,A*48
$GNRMC,034407,A,5800.788956,N,05616.838150,E,,, 260325,,,A*49
$GNRMC,034408,A,5800.788956,N,05616.838150,E,,, 260325,,,A*46
$GNRMC,034409,A,5800.788956,N,05616.838150,E,,, 260325,,,A*47
$GNRMC,034410,A,5800.788956,N,05616.838150,E,,, 260325,,,A*4F
$GNRMC,034411,A,5800.788956,N,05616.838150,E,,, 260325,,,A*4E
$GNRMC,034412,A,5800.788956,N,05616.838150,E,,, 260325,,,A*4D
$GNRMC,034413,A,5800.788956,N,05616.838150,E,,, 260325,,,A*4C
$GNRMC,034414,A,5800.788956,N,05616.838150,E,,, 260325,,,A*4B
$GNRMC,034415,A,5800.788956,N,05616.838150,E,,, 260325,,,A*4A
$GNRMC,034416,A,5800.788956,N,05616.838150,E,,, 260325,,,A*49
$GNRMC,034417,A,5800.788956,N,05616.838150,E,,, 260325,,,A*48
$GNRMC,034418,A,5800.788956,N,05616.838150,E,,, 260325,,,A*47
$GNRMC,034419,A,5800.788956,N,05616.838150,E,,, 260325,,,A*46
$GNRMC,034420,A,5800.788956,N,05616.838150,E,,, 260325,,,A*4C
$GNRMC,034421,A,5800.788956,N,05616.838150,E,,, 260325,,,A*4D
$GNRMC,034422,A,5800.788956,N,05616.838150,E,,, 260325,,,A*4E
$GNRMC,034423,A,5800.788956,N,05616.838150,E,,, 260325,,,A*4F
$GNRMC,034424,A,5800.788956,N,05616.838150,E,,, 260325,,,A*48
$GNRMC,034425,A,5800.788956,N,05616.838150,E,,, 260325,,,A*49
$GNRMC,034426,A,5800.788956,N,05616.838150,E,,, 260325,,,A*4A
$GNRMC,034427,A,5800.788956,N,05616.838150,E,,, 260325,,,A*4B
$GNRMC,034428,A,5800.788956,N,05616.838150,E,,, 260325,,,A*44
$GNRMC,034429,A,5800.788956,N,05616.838150,E,,, 260325,,,A*45
$GNRMC,034430,A,5800.788956,N,05616.838150,E,,, 260325,,,A*4D
$GNRMC,034431,A,5800.788956,N,05616.838150,E,,, 260325,,,A*4C
$GNRMC,034432,A,5800.788956,N,05616.838150,E,,, 260325,,,A*4F
$GNRMC,034433,A,5800.788956,N,05616.838150,E,,, 260325,,,A*4E
$GNRMC,034434,A,5800.788956,N,05616.838150,E,,, 260325,,,A*49
$GNRMC,034435,A,5800.788956,N,05616.838150,E,,, 260325,,,A*48
$GNRMC,034436,A,5800.788956,N,05616.838150,E,,, 260325,,,A*4B
$GNRMC,034437,A,5800.788956,N,05616.838150,E,,, 260325,,,A*4A
$GNRMC,034438,A,5800.788956,N,05616.838150,E,,, 260325,,,A*45
$GNRMC,034439,A,5800.788956,N,05616.838150,E,,, 260325,,,A*44
$GNRMC,034440,A,5800.788956,N,05616.838150,E,,, 260325,,,A*4A
$GNRMC,034441,A,5800.788956,N,05616.838150,E,,, 260325,,,A*4B
$GNRMC,034442,A,5800.788956,N,05616.838150,E,,, 260325,,,A*48
$GNRMC,034443,A,5800.788956,N,05616.838150,E,,, 260325,,,A*49
$GNRMC,034444,A,5800.788956,N,05616.838150,E,,, 260325,,,A*4E
$GNRMC,034445,A,5800.788956,N,05616.838150,E,,, 260325,,,A*4F
$GNRMC,034446,A,5800.788956,N,05616.838150,E,,, 260325,,,A*4C
$GNRMC,034447,A,5800.788956,N,05616.838150,E,,, 260325,,,A*4D
$GNRMC,034448,A,5800.788956,N,05616.838150,E,,, 260325,,,A*42
$GNRMC,034449,A,5800.788956,N,05616.838150,E,,, 260325,,,A*43
$GNRMC,034450,A,5800.788956,N,05616.838150,E,,, 260325,,,A*4B
$GNRMC,034451,A,5800.788956,N,05616.838150,E,,, 260325,,,A*4A
$GNRMC,034452,A,5800.788956,N,05616.838150,E,,, 260325,,,A*49
$GNRMC,034453,A,5800.788956,N,05616.838150,E,,, 260325,,,A*48
$GNRMC,034454,A,5800.788956,N,05616.838150,E,,, 260325,,,A*4F
$GNRMC,034455,A,5800.788956,N,05616.838150,E,,, 260325,,,A*4E
$GNRMC,034456,A,5800.788956,N,05616.838150,E,,, 260325,,,A*4D
$GNRMC,034457,A,5800.788956,N,05616.838150,E,,, 260325,,,A*4C
$GNRMC,034458,A,5800.788956,N,05616.838150,E,,, 260325,,,A*43
$GNRMC,034459,A,5800.788956,N,05616.838150,E,,, 260325,,,A*42
$GNRMC,034500,A,5800.788956,N,05616.838150,E,,, 260325,,,A*4F
$GNRMC,034501,A,5800.788956,N,05616.838150,E,,, 260325,,,A*4E
$GNRMC,034502,A,5800.788956,N,05616.838150,E,,, 260325,,,A*4D
$GNRMC,034503,A,5800.788956,N,05616.838150,E,,, 260325,,,A*4C
$GNRMC,034504,A,5800.788956,N,05616.838150,E,,, 260325,,,A*4B
$GNRMC,034505,A,5800.788956,N,05616.838150,E,,, 260325,,,A*4A
$GNRMC,034506,A,5800.788956,N,05616.838150,E,,, 260325,,,A*49
$GNRMC,034507,A,5800.788956,N,05616.838150,E,,, 260325,,,A*48
$GNRMC,034508,A,5800.788956,N,05616.838150,E,,, 260325,,,A*47
$GNRMC,034509,A,5800.788956,N,05616.838150,E,,, 260325,,,A*46
$GNRMC,034510,A,5800.788956,N,05616.838150,E,,, 260325,,,A*4E
$GNRMC,034511,A,5800.788956,N,05616.838150,E,,, 260325,,,A*4F
$GNRMC,034512,A,5800.788956,N,05616.838150,E,,, 260325,,,A*4C
$GNRMC,034513,A,5800.788956,N,05616.838150,E,,, 260325,,,A*4D
$GNRMC,034514,A,5800.788956,N,05616.838150,E,,, 260325,,,A*4A
$GNRMC,034515,A,5800.788956,N,05616.838150,E,,, 260325,,,A*4B
$GNRMC,034516,A,5800.788956,N,05616.838150,E,,, 260325,,,A*48
$GNRMC,034517,A,5800.788956,N,05616.838150,E,,, 260325,,,A*49
$GNRMC,034518,A,5800.788956,N,05616.838150,E,,, 260325,,,A*46
$GNRMC,034519,A,5800.788956,N,05616.838150,E,,, 260325,,,A*47
$GNRMC,034520,A,5800.788956,N,05616.838150,E,,, 260325,,,A*4D
$GNRMC,034521,A,5800.788956,N,05616.838150,E,,, 260325,,,A*4C
$GNRMC,034522,A,5800.788956,N,05616.838150,E,,, 260325,,,A*4F
$GNRMC,034523,A,5800.788956,N,05616.838150,E,,, 260325,,,A*4E
$GNRMC,034524,A,5800.788956,N,05616.838150,E,,, 260325,,,A*49
$GNRMC,034525,A,5800.788956,N,05616.838150,E,,, 260325,,,A*48
$GNRMC,034526,A,5800.788956,N,05616.838150,E,,, 260325,,,A*4B
$GNRMC,034527,A,5800.788956,N,05616.838150,E,,, 260325,,,A*4A
$GNRMC,034528,A,5800.788956,N,05616.838150,E,,, 260325,,,A*45
$GNRMC,034529,A,5800.788956,N,05616.838150,E,,, 260325,,,A*44
$GNRMC,034530,A,5800.788956,N,05616.838150,E,,, 260325,,,A*4C
$GNRMC,034531,A,5800.788956,N,05616.838150,E,,, 260325,,,A*4D
$GNRMC,034532,A,5800.788956,N,05616.838150,E,,, 260325,,,A*4E
$GNRMC,034533,A,5800.788956,N,05616.838150,E,,, 260325,,,A*4F
$GNRMC,034534,A,5800.788956,N,05616.838150,E,,, 260325,,,A*48
$GNRMC,034535,A,5800.788956,N,05616.838150,E,,, 260325,,,A*49
$GNRMC,034536,A,5800.788956,N,05616.838150,E,,, 260325,,,A*4A
$GNRMC,034537,A,5800.788956,N,05616.838150,E,,, 260325,,,A*4B
$GNRMC,034538,A,5800.788956,N,05616.838150,E,,, 260325,,,A*44
$GNRMC,034539,A,5800.788956,N,05616.838150,E,,, 260325,,,A*45
$GNRMC,034540,A,5800.788956,N,05616.838150,E,,, 260325,,,A*4B
$GNRMC,034541,A,5800.788956,N,05616.838150,E,,, 260325,,,A*4A
$GNRMC,034542,A,5800.788956,N,05616.838150,E,,, 260325,,,A*49
$GNRMC,034543,A,5800.788956,N,05616.838150,E,,, 260325,,,A*48
$GNRMC,034544,A,5800.788956,N,05616.838150,E,,, 260325,,,A*4F
$GNRMC,034545,A,5800.788956,N,05616.838150,E,,, 260325,,,A*4E
$GNRMC,034546,A,5800.788956,N,05616.838150,E,,, 260325,,,A*4D
$GNRMC,034547,A,5800.788956,N,05616.838150,E,,, 260325,,,A*4C
$GNRMC,034548,A,5800.788956,N,05616.838150,E,,, 260325,,,A*43
$GNRMC,034549,A,5800.788956,N,05616.838150,E,,, 260325,,,A*42
$GNRMC,034550,A,5800.788956,N,05616.838150,E,,, 260325,,,A*4A
$GNRMC,034551,A,5800.788956,N,05616.838150,E,,, 260325,,,A*4B
$GNRMC,034552,A,5800.788956,N,05616.838150,E,,, 260325,,,A*48
$GNRMC,034553,A,5800.788956,N,05616.838150,E,,, 260325,,,A*49
$GNRMC,034554,A,5800.788956,N,05616.838150,E,,, 260325,,,A*4E
$GNRMC,034555,A,5800.788956,N,05616.838150,E,,, 260325,,,A*4F
$GNRMC,034556,A,5800.788956,N,05616.838150,E,,, 260325,,,A*4C
$GNRMC,034557,A,5800.788956,N,05616.838150,E,,, 260325,,,A*4D
$GNRMC,034558,A,5800.788956,N,05616.838150,E,,, 260325,,,A*42
$GNRMC,034559,A,5800.788956,N,05616.838150,E,,, 260325,,,A*43
$GNRMC,034600,A,5800.788956,N,05616.838150,E,,, 260325,,,A*4C
$GNRMC,034601,A,5800.788956,N,05616.838150,E,,, 260325,,,A*4D
$GNRMC,034602,A,5800.788956,N,05616.838150,E,,, 260325,,,A*4E
$GNRMC,034603,A,5800.788956,N,05616.838150,E,,, 260325,,,A*4F
$GNRMC,034604,A,5800.788956,N,05616.838150,E,,, 260325,,,A*48
$GNRMC,034605,A,5800.788956,N,05616.838150,E,,, 260325,,,A*49
$GNRMC,034606,A,5800.788956,N,05616.838150,E,,, 260325,,,A*4A
$GNRMC,034607,A,5800.788956,N,05616.838150,E,,, 260325,,,A*4B
$GNRMC,034608,A,5800.788956,N,05616.838150,E,,, 260325,,,A*44
$GNRMC,034609,A,5800.788956,N,05616.838150,E,,, 260325,,,A*45
$GNRMC,034610,A,5800.788956,N,05616.838150,E,,, 260325,,,A*4D
$GNRMC,034611,A,5800.788956,N,05616.838150,E,,, 260325,,,A*4C
$GNRMC,034612,A,5800.788956,N,05616.838150,E,,, 260325,,,A*4F
$GNRMC,034613,A,5800.788956,N,05616.838150,E,,, 260325,,,A*4E
$GNRMC,034614,A,5800.788956,N,05616.838150,E,,, 260325,,,A*49
$GNRMC,034615,A,5800.788956,N,05616.838150,E,,, 260325,,,A*48
$GNRMC,034616,A,5800.788956,N,05616.838150,E,,, 260325,,,A*4B
$GNRMC,034617,A,5800.788956,N,05616.838150,E,,, 260325,,,A*4A
$GNRMC,034618,A,5800.788956,N,05616.838150,E,,, 260325,,,A*45
$GNRMC,034619,A,5800.788956,N,05616.838150,E,,, 260325,,,A*44
$GNRMC,034620,A,5800.788956,N,05616.838150,E,,, 260325,,,A*4E
$GNRMC,034621,A,5800.788956,N,05616.838150,E,,, 260325,,,A*4F
$GNRMC,034622,A,5800.788956,N,05616.838150,E,,, 260325,,,A*4C
$GNRMC,034623,A,5800.788956,N,05616.838150,E,,, 260325,,,A*4D
$GNRMC,034624,A,5800.788956,N,05616.838150,E,,, 260325,,,A*4A
$GNRMC,034625,A,5800.788956,N,05616.838150,E,,, 260325,,,A*4B
$GNRMC,034626,A,5800.788956,N,05616.838150,E,,, 260325,,,A*48
$GNRMC,034627,A,5800.788956,N,05616.838150,E,,, 260325,,,A*49
$GNRMC,034628,A,5800.788956,N,05616.838150,E,,, 260325,,,A*46
$GNRMC,034629,A,5800.788956,N,05616.838150,E,,, 260325,,,A*47
$GNRMC,034630,A,5800.788956,N,05616.838150,E,,, 260325,,,A*4F
$GNRMC,034631,A,5800.788956,N,05616.838150,E,,, 260325,,,A*4E
$GNRMC,034632,A,5800.788956,N,05616.838150,E,,, 260325,,,A*4D
$GNRMC,034633,A,5800.788956,N,05616.838150,E,,, 260325,,,A*4C
$GNRMC,034634,A,5800.788956,N,05616.838150,E,,, 260325,,,A*4B
$GNRMC,034635,A,5800.788956,N,05616.838150,E,,, 260325,,,A*4A
$GNRMC,034636,A,5800.788956,N,05616.838150,E,,, 260325,,,A*49
$GNRMC,034637,A,5800.788956,N,05616.838150,E,,, 260325,,,A*48
$GNRMC,034638,A,5800.788956,N,05616.838150,E,,, 260325,,,A*47
$GNRMC,034639,A,5800.788956,N,05616.838150,E,,, 260325,,,A*46
$GNRMC,034640,A,5800.788956,N,05616.838150,E,,, 260325,,,A*48
$GNRMC,034641,A,5800.788956,N,05616.838150,E,,, 260325,,,A*49
$GNRMC,034642,A,5800.788956,N,05616.838150,E,,, 260325,,,A*4A
$GNRMC,034643,A,5800.788956,N,05616.838150,E,,, 260325,,,A*4B
$GNRMC,034644,A,5800.788956,N,05616.838150,E,,, 260325,,,A*4C
$GNRMC,034645,A,5800.788956,N,05616.838150,E,,, 260325,,,A*4D
$GNRMC,034646,A,5800.788956,N,05616.838150,E,,, 260325,,,A*4E
$GNRMC,034647,A,5800.788956,N,05616.838150,E,,, 260325,,,A*4F
$GNRMC,034648,A,5800.788956,N,05616.838150,E,,, 260325,,,A*40
$GNRMC,034649,A,5800.788956,N,05616.838150,E,,, 260325,,,A*41
$GNRMC,034650,A,5800.788956,N,05616.838150,E,,, 260325,,,A*49
$GNRMC,034651,A,5800.788956,N,05616.838150,E,,, 260325,,,A*48
$GNRMC,034652,A,5800.788956,N,05616.838150,E,,, 260325,,,A*4B
$GNRMC,034653,A,5800.788956,N,05616.838150,E,,, 260325,,,A*4A
$GNRMC,034654,A,5800.788956,N,05616.838150,E,,, 260325,,,A*4D
$GNRMC,034655,A,5800.788956,N,05616.838150,E,,, 260325,,,A*4C
$GNRMC,034656,A,5800.788956,N,05616.838150,E,,, 260325,,,A*4F
$GNRMC,034657,A,5800.788956,N,05616.838150,E,,, 260325,,,A*4E
$GNRMC,034658,A,5800.788956,N,05616.838150,E,,, 260325,,,A*41
$GNRMC,034659,A,5800.788956,N,05616.838150,E,,, 260325,,,A*40
$GNRMC,034700,A,5800.788956,N,05616.838150,E,,, 260325,,,A*4D
$GNRMC,034701,A,5800.788956,N,05616.838150,E,,, 260325,,,A*4C
$GNRMC,034702,A,5800.788956,N,05616.838150,E,,, 260325,,,A*4F
$GNRMC,034703,A,5800.788956,N,05616.838150,E,,, 260325,,,A*4E
$GNRMC,034704,A,5800.788956,N,05616.838150,E,,, 260325,,,A*49
$GNRMC,034705,A,5800.788956,N,05616.838150,E,,, 260325,,,A*48
$GNRMC,034706,A,5800.788956,N,05616.838150,E,,, 260325,,,A*4B
$GNRMC,034707,A,5800.788956,N,05616.838150,E,,, 260325,,,A*4A
$GNRMC,034708,A,5800.788956,N,05616.838150,E,,, 260325,,,A*45
$GNRMC,034709,A,5800.788956,N,05616.838150,E,,, 260325,,,A*44
$GNRMC,034710,A,5800.788956,N,05616.838150,E,,, 260325,,,A*4C
$GNRMC,034711,A,5800.788956,N,05616.838150,E,,, 260325,,,A*4D
$GNRMC,034712,A,5800.788956,N,05616.838150,E,,, 260325,,,A*4E
$GNRMC,034713,A,5800.788956,N,05616.838150,E,,, 260325,,,A*4F
$GNRMC,034714,A,5800.788956,N,05616.838150,E,,, 260325,,,A*48
$GNRMC,034715,A,5800.788956,N,05616.838150,E,,, 260325,,,A*49
$GNRMC,034716,A,5800.788956,N,05616.838150,E,,, 260325,,,A*4A
$GNRMC,034717,A,5800.788956,N,05616.838150,E,,, 260325,,,A*4B
$GNRMC,034718,A,5800.788956,N,05616.838150,E,,, 260325,,,A*44
$GNRMC,034719,A,5800.788956,N,05616.838150,E,,, 260325,,,A*45
$GNRMC,034720,A,5800.788956,N,05616.838150,E,,, 260325,,,A*4F
$GNRMC,034721,A,5800.788956,N,05616.838150,E,,, 260325,,,A*4E
$GNRMC,034722,A,5800.788956,N,05616.838150,E,,, 260325,,,A*4D
$GNRMC,034723,A,5800.788956,N,05616.838150,E,,, 260325,,,A*4C
$GNRMC,034724,A,5800.788956,N,05616.838150,E,,, 260325,,,A*4B
$GNRMC,034725,A,5800.788956,N,05616.838150,E,,, 260325,,,A*4A
$GNRMC,034726,A,5800.788956,N,05616.838150,E,,, 260325,,,A*49
$GNRMC,034727,A,5800.788956,N,05616.838150,E,,, 260325,,,A*48
$GNRMC,034728,A,5800.788956,N,05616.838150,E,,, 260325,,,A*47
$GNRMC,034729,A,5800.788956,N,05616.838150,E,,, 260325,,,A*46
$GNRMC,034730,A,5800.788956,N,05616.838150,E,,, 260325,,,A*4E
$GNRMC,034731,A,5800.788956,N,05616.838150,E,,, 260325,,,A*4F
$GNRMC,034732,A,5800.788956,N,05616.838150,E,,, 260325,,,A*4C
$GNRMC,034733,A,5800.788956,N,05616.838150,E,,, 260325,,,A*4D
$GNRMC,034734,A,5800.788956,N,05616.838150,E,,, 260325,,,A*4A
$GNRMC,034735,A,5800.788956,N,05616.838150,E,,, 260325,,,A*4B
$GNRMC,034736,A,5800.788956,N,05616.838150,E,,, 260325,,,A*48
$GNRMC,034737,A,5800.788956,N,05616.838150,E,,, 260325,,,A*49
$GNRMC,034738,A,5800.788956,N,05616.838150,E,,, 260325,,,A*46
$GNRMC,034739,A,5800.788956,N,05616.838150,E,,, 260325,,,A*47
$GNRMC,034740,A,5800.788956,N,05616.838150,E,,, 260325,,,A*49
$GNRMC,034741,A,5800.788956,N,05616.838150,E,,, 260325,,,A*48
$GNRMC,034742,A,5800.788956,N,05616.838150,E,,, 260325,,,A*4B
$GNRMC,034743,A,5800.788956,N,05616.838150,E,,, 260325,,,A*4A
$GNRMC,034744,A,5800.788956,N,05616.838150,E,,, 260325,,,A*4D
$GNRMC,034745,A,5800.788956,N,05616.838150,E,,, 260325,,,A*4C
$GNRMC,034746,A,5800.788956,N,05616.838150,E,,, 260325,,,A*4F
$GNRMC,034747,A,5800.788956,N,05616.838150,E,,, 260325,,,A*4E
$GNRMC,034748,A,5800.788956,N,05616.838150,E,,, 260325,,,A*41
$GNRMC,034749,A,5800.788956,N,05616.838150,E,,, 260325,,,A*40
$GNRMC,034750,A,5800.788956,N,05616.838150,E,,, 260325,,,A*48
$GNRMC,034751,A,5800.788956,N,05616.838150,E,,, 260325,,,A*49
$GNRMC,034752,A,5800.788956,N,05616.838150,E,,, 260325,,,A*4A
$GNRMC,034753,A,5800.788956,N,05616.838150,E,,, 260325,,,A*4B
$GNRMC,034754,A,5800.788956,N,05616.838150,E,,, 260325,,,A*4C
$GNRMC,034755,A,5800.788956,N,05616.838150,E,,, 260325,,,A*4D
$GNRMC,034756,A,5800.788956,N,05616.838150,E,,, 260325,,,A*4E
$GNRMC,034757,A,5800.788956,N,05616.838150,E,,, 260325,,,A*4F
$GNRMC,034758,A,5800.788956,N,05616.838150,E,,, 260325,,,A*40
$GNRMC,034759,A,5800.788956,N,05616.838150,E,,, 260325,,,A*41
$GNRMC,034800,A,5800.788956,N,05616.838150,E,,, 260325,,,A*42
$GNRMC,034801,A,5800.788956,N,05616.838150,E,,, 260325,,,A*43
$GNRMC,034802,A,5800.788956,N,05616.838150,E,,, 260325,,,A*40
$GNRMC,034803,A,5800.788956,N,05616.838150,E,,, 260325,,,A*41
$GNRMC,034804,A,5800.788956,N,05616.838150,E,,, 260325,,,A*46
$GNRMC,034805,A,5800.788956,N,05616.838150,E,,, 260325,,,A*47
$GNRMC,034806,A,5800.788956,N,05616.838150,E,,, 260325,,,A*44
$GNRMC,034807,A,5800.788956,N,05616.838150,E,,, 260325,,,A*45
$GNRMC,034808,A,5800.788956,N,05616.838150,E,,, 260325,,,A*4A
$GNRMC,034809,A,5800.788956,N,05616.838150,E,,, 260325,,,A*4B
$GNRMC,034810,A,5800.788956,N,05616.838150,E,,, 260325,,,A*43
$GNRMC,034811,A,5800.788956,N,05616.838150,E,,, 260325,,,A*42
$GNRMC,034812,A,5800.788956,N,05616.838150,E,,, 260325,,,A*41
$GNRMC,034813,A,5800.788956,N,05616.838150,E,,, 260325,,,A*40
$GNRMC,034814,A,5800.788956,N,05616.838150,E,,, 260325,,,A*47
$GNRMC,034815,A,5800.788956,N,05616.838150,E,,, 260325,,,A*46
$GNRMC,034816,A,5800.788956,N,05616.838150,E,,, 260325,,,A*45
$GNRMC,034817,A,5800.788956,N,05616.838150,E,,, 260325,,,A*44
$GNRMC,034818,A,5800.788956,N,05616.838150,E,,, 260325,,,A*4B
$GNRMC,034819,A,5800.788956,N,05616.838150,E,,, 260325,,,A*4A
$GNRMC,034820,A,5800.788956,N,05616.838150,E,,, 260325,,,A*40
$GNRMC,034821,A,5800.788956,N,05616.838150,E,,, 260325,,,A*41
$GNRMC,034822,A,5800.788956,N,05616.838150,E,,, 260325,,,A*42
$GNRMC,034823,A,5800.788956,N,05616.838150,E,,, 260325,,,A*43
$GNRMC,034824,A,5800.788956,N,05616.838150,E,,, 260325,,,A*44
$GNRMC,034825,A,5800.788956,N,05616.838150,E,,, 260325,,,A*45
$GNRMC,034826,A,5800.788956,N,05616.838150,E,,, 260325,,,A*46
$GNRMC,034827,A,5800.788956,N,05616.838150,E,,, 260325,,,A*47
$GNRMC,034828,A,5800.788956,N,05616.838150,E,,, 260325,,,A*48
$GNRMC,034829,A,5800.788956,N,05616.838150,E,,, 260325,,,A*49
$GNRMC,034830,A,5800.788956,N,05616.838150,E,,, 260325,,,A*41
$GNRMC,034831,A,5800.788956,N,05616.838150,E,,, 260325,,,A*40
$GNRMC,034832,A,5800.788956,N,05616.838150,E,,, 260325,,,A*43
$GNRMC,034833,A,5800.788956,N,05616.838150,E,,, 260325,,,A*42
$GNRMC,034834,A,5800.788956,N,05616.838150,E,,, 260325,,,A*45
$GNRMC,034835,A,5800.788956,N,05616.838150,E,,, 260325,,,A*44
$GNRMC,034836,A,5800.788956,N,05616.838150,E,,, 260325,,,A*47
$GNRMC,034837,A,5800.788956,N,05616.838150,E,,, 260325,,,A*46
$GNRMC,034838,A,5800.788956,N,05616.838150,E,,, 260325,,,A*49
$GNRMC,034839,A,5800.788956,N,05616.838150,E,,, 260325,,,A*48
$GNRMC,034840,A,5800.788956,N,05616.838150,E,,, 260325,,,A*46
$GNRMC,034841,A,5800.788956,N,05616.838150,E,,, 260325,,,A*47
$GNRMC,034842,A,5800.788956,N,05616.838150,E,,, 260325,,,A*44
$GNRMC,034843,A,5800.788956,N,05616.838150,E,,, 260325,,,A*45
$GNRMC,034844,A,5800.788956,N,05616.838150,E,,, 260325,,,A*42
$GNRMC,034845,A,5800.788956,N,05616.838150,E,,, 260325,,,A*43
$GNRMC,034846,A,5800.788956,N,05616.838150,E,,, 260325,,,A*40
$GNRMC,034847,A,5800.788956,N,05616.838150,E,,, 260325,,,A*41
$GNRMC,034848,A,5800.788956,N,05616.838150,E,,, 260325,,,A*4E
$GNRMC,034849,A,5800.788956,N,05616.838150,E,,, 260325,,,A*4F
$GNRMC,034850,A,5800.788956,N,05616.838150,E,,, 260325,,,A*47
$GNRMC,034851,A,5800.788956,N,05616.838150,E,,, 260325,,,A*46
$GNRMC,034852,A,5800.788956,N,05616.838150,E,,, 260325,,,A*45
$GNRMC,034853,A,5800.788956,N,05616.838150,E,,, 260325,,,A*44
$GNRMC,034854,A,5800.788956,N,05616.838150,E,,, 260325,,,A*43
$GNRMC,034855,A,5800.788956,N,05616.838150,E,,, 260325,,,A*42
$GNRMC,034856,A,5800.788956,N,05616.838150,E,,, 260325,,,A*41
$GNRMC,034857,A,5800.788956,N,05616.838150,E,,, 260325,,,A*40
$GNRMC,034858,A,5800.788956,N,05616.838150,E,,, 260325,,,A*4F
$GNRMC,034859,A,5800.788956,N,05616.838150,E,,, 260325,,,A*4E
$GNRMC,034900,A,5800.788956,N,05616.838150,E,,, 260325,,,A*43
$GNRMC,034901,A,5800.788956,N,05616.838150,E,,, 260325,,,A*42
$GNRMC,034902,A,5800.788956,N,05616.838150,E,,, 260325,,,A*41
$GNRMC,034903,A,5800.788956,N,05616.838150,E,,, 260325,,,A*40
$GNRMC,034904,A,5800.788956,N,05616.838150,E,,, 260325,,,A*47
$GNRMC,034905,A,5800.788956,N,05616.838150,E,,, 260325,,,A*46
$GNRMC,034906,A,5800.788956,N,05616.838150,E,,, 260325,,,A*45
$GNRMC,034907,A,5800.788956,N,05616.838150,E,,, 260325,,,A*44
$GNRMC,034908,A,5800.788956,N,05616.838150,E,,, 260325,,,A*4B
$GNRMC,034909,A,5800.788956,N,05616.838150,E,,, 260325,,,A*4A
$GNRMC,034910,A,5800.788956,N,05616.838150,E,,, 260325,,,A*42
$GNRMC,034911,A,5800.788956,N,05616.838150,E,,, 260325,,,A*43
$GNRMC,034912,A,5800.788956,N,05616.838150,E,,, 260325,,,A*40
$GNRMC,034913,A,5800.788956,N,05616.838150,E,,, 260325,,,A*41
$GNRMC,034914,A,5800.788956,N,05616.838150,E,,, 260325,,,A*46
$GNRMC,034915,A,5800.788956,N,05616.838150,E,,, 260325,,,A*47
$GNRMC,034916,A,5800.788956,N,05616.838150,E,,, 260325,,,A*44
$GNRMC,034917,A,5800.788956,N,05616.838150,E,,, 260325,,,A*45
$GNRMC,034918,A,5800.788956,N,05616.838150,E,,, 260325,,,A*4A
$GNRMC,034919,A,5800.788956,N,05616.838150,E,,, 260325,,,A*4B
$GNRMC,034920,A,5800.788956,N,05616.838150,E,,, 260325,,,A*41
$GNRMC,034921,A,5800.788956,N,05616.838150,E,,, 260325,,,A*40
$GNRMC,034922,A,5800.788956,N,05616.838150,E,,, 260325,,,A*43
$GNRMC,034923,A,5800.788956,N,05616.838150,E,,, 260325,,,A*42
$GNRMC,034924,A,5800.788956,N,05616.838150,E,,, 260325,,,A*45
$GNRMC,034925,A,5800.788956,N,05616.838150,E,,, 260325,,,A*44
$GNRMC,034926,A,5800.788956,N,05616.838150,E,,, 260325,,,A*47
$GNRMC,034927,A,5800.788956,N,05616.838150,E,,, 260325,,,A*46
$GNRMC,034928,A,5800.788956,N,05616.838150,E,,, 260325,,,A*49
$GNRMC,034929,A,5800.788956,N,05616.838150,E,,, 260325,,,A*48
$GNRMC,034930,A,5800.788956,N,05616.838150,E,,, 260325,,,A*40
$GNRMC,034931,A,5800.788956,N,05616.838150,E,,, 260325,,,A*41
$GNRMC,034932,A,5800.788956,N,05616.838150,E,,, 260325,,,A*42
$GNRMC,034933,A,5800.788956,N,05616.838150,E,,, 260325,,,A*43
$GNRMC,034934,A,5800.788956,N,05616.838150,E,,, 260325,,,A*44
$GNRMC,034935,A,5800.788956,N,05616.838150,E,,, 260325,,,A*45
$GNRMC,034936,A,5800.788956,N,05616.838150,E,,, 260325,,,A*46
$GNRMC,034937,A,5800.788956,N,05616.838150,E,,, 260325,,,A*47
$GNRMC,034938,A,5800.788956,N,05616.838150,E,,, 260325,,,A*48
$GNRMC,034939,A,5800.788956,N,05616.838150,E,,, 260325,,,A*49
$GNRMC,034940,A,5800.788956,N,05616.838150,E,,, 260325,,,A*47
$GNRMC,034941,A,5800.788956,N,05616.838150,E,,, 260325,,,A*46
$GNRMC,034942,A,5800.788956,N,05616.838150,E,,, 260325,,,A*45
$GNRMC,034943,A,5800.788956,N,05616.838150,E,,, 260325,,,A*44
$GNRMC,034944,A,5800.788956,N,05616.838150,E,,, 260325,,,A*43
$GNRMC,034945,A,5800.788956,N,05616.838150,E,,, 260325,,,A*42
$GNRMC,034946,A,5800.788956,N,05616.838150,E,,, 260325,,,A*41
$GNRMC,034947,A,5800.788956,N,05616.838150,E,,, 260325,,,A*40
$GNRMC,034948,A,5800.788956,N,05616.838150,E,,, 260325,,,A*4F
$GNRMC,034949,A,5800.788956,N,05616.838150,E,,, 260325,,,A*4E
$GNRMC,034950,A,5800.788956,N,05616.838150,E,,, 260325,,,A*46
$GNRMC,034951,A,5800.788956,N,05616.838150,E,,, 260325,,,A*47
$GNRMC,034952,A,5800.788956,N,05616.838150,E,,, 260325,,,A*44
$GNRMC,034953,A,5800.788956,N,05616.838150,E,,, 260325,,,A*45
$GNRMC,034954,A,5800.788956,N,05616.838150,E,,, 260325,,,A*42
$GNRMC,034955,A,5800.788956,N,05616.838150,E,,, 260325,,,A*43
$GNRMC,034956,A,5800.788956,N,05616.838150,E,,, 260325,,,A*40
$GNRMC,034957,A,5800.788956,N,05616.838150,E,,, 260325,,,A*41
$GNRMC,034958,A,5800.788956,N,05616.838150,E,,, 260325,,,A*4E
$GNRMC,034959,A,5800.788956,N,05616.838150,E,,, 260325,,,A*4F
$GNRMC,035000,A,5800.788956,N,05616.838150,E,,, 260325,,,A*4B
$GNRMC,035001,A,5800.788956,N,05616.838150,E,,, 260325,,,A*4A
$GNRMC,035002,A,5800.788956,N,05616.838150,E,,, 260325,,,A*49
$GNRMC,035003,A,5800.788956,N,05616.838150,E,,, 260325,,,A*48
$GNRMC,035004,A,5800.788956,N,05616.838150,E,,, 260325,,,A*4F
$GNRMC,035005,A,5800.788956,N,05616.838150,E,,, 260325,,,A*4E
$GNRMC,035006,A,5800.788956,N,05616.838150,E,,, 260325,,,A*4D
$GNRMC,035007,A,5800.788956,N,05616.838150,E,,, 260325,,,A*4C
$GNRMC,035008,A,5800.788956,N,05616.838150,E,,, 260325,,,A*43
$GNRMC,035009,A,5800.788956,N,05616.838150,E,,, 260325,,,A*42
$GNRMC,035010,A,5800.788956,N,05616.838150,E,,, 260325,,,A*4A
$GNRMC,035011,A,5800.788956,N,05616.838150,E,,, 260325,,,A*4B
$GNRMC,035012,A,5800.788956,N,05616.838150,E,,, 260325,,,A*48
$GNRMC,035013,A,5800.788956,N,05616.838150,E,,, 260325,,,A*49
$GNRMC,035014,A,5800.788956,N,05616.838150,E,,, 260325,,,A*4E
$GNRMC,035015,A,5800.788956,N,05616.838150,E,,, 260325,,,A*4F
$GNRMC,035016,A,5800.788956,N,05616.838150,E,,, 260325,,,A*4C
$GNRMC,035017,A,5800.788956,N,05616.838150,E,,, 260325,,,A*4D
$GNRMC,035018,A,5800.788956,N,05616.838150,E,,, 260325,,,A*42
$GNRMC,035019,A,5800.788956,N,05616.838150,E,,, 260325,,,A*43
$GNRMC,035020,A,5800.788956,N,05616.838150,E,,, 260325,,,A*49
$GNRMC,035021,A,5800.788956,N,05616.838150,E,,, 260325,,,A*48
$GNRMC,035022,A,5800.788956,N,05616.838150,E,,, 260325,,,A*4B
$GNRMC,035023,A,5800.788956,N,05616.838150,E,,, 260325,,,A*4A
$GNRMC,035024,A,5800.788956,N,05616.838150,E,,, 260325,,,A*4D
$GNRMC,035025,A,5800.788956,N,05616.838150,E,,, 260325,,,A*4C
$GNRMC,035026,A,5800.788956,N,05616.838150,E,,, 260325,,,A*4F
$GNRMC,035027,A,5800.788956,N,05616.838150,E,,, 260325,,,A*4E
