$GNRMC,212009,A,5800.126343,N,05617.759628,E,,, 060325,,,A*4a
$GNRMC,212010,A,5800.126343,N,05617.759628,E,,, 060325,,,A*42
$GNRMC,212011,A,5800.126343,N,05617.759628,E,,, 060325,,,A*43
$GNRMC,212012,A,5800.126343,N,05617.759628,E,,, 060325,,,A*40
$GNRMC,212013,A,5800.126801,N,05617.759628,E,,, 060325,,,A*4c
$GNRMC,212014,A,5800.126801,N,05617.759628,E,,, 060325,,,A*4b
$GNRMC,212015,A,5800.127029,N,05617.759628,E,,, 060325,,,A*49
$GNRMC,212016,A,5800.127029,N,05617.759628,E,,, 060325,,,A*4a
$GNRMC,212017,A,5800.127029,N,05617.759628,E,,, 060325,,,A*4b
$GNRMC,212018,A,5800.127487,N,05617.759628,E,,, 060325,,,A*44
$GNRMC,212019,A,5800.127487,N,05617.760086,E,,, 060325,,,A*4d
$GNRMC,212020,A,5800.127487,N,05617.760086,E,,, 060325,,,A*47
$GNRMC,212021,A,5800.127487,N,05617.759628,E,,, 060325,,,A*4e
$GNRMC,212022,A,5800.127487,N,05617.760086,E,,, 060325,,,A*45
$GNRMC,212023,A,5800.127487,N,05617.759628,E,,, 060325,,,A*4c
$GNRMC,212024,A,5800.127487,N,05617.759628,E,,, 060325,,,A*4b
$GNRMC,212025,A,5800.127487,N,05617.759628,E,,, 060325,,,A*4a
$GNRMC,212026,A,5800.127487,N,05617.759628,E,,, 060325,,,A*49
$GNRMC,212027,A,5800.127945,N,05617.759628,E,,, 060325,,,A*4b
$GNRMC,212028,A,5800.127945,N,05617.759628,E,,, 060325,,,A*44
$GNRMC,212029,A,5800.127945,N,05617.759628,E,,, 060325,,,A*45
$GNRMC,212030,A,5800.127945,N,05617.759628,E,,, 060325,,,A*4d
$GNRMC,212031,A,5800.127945,N,05617.759628,E,,, 060325,,,A*4c
$GNRMC,212032,A,5800.127945,N,05617.759628,E,,, 060325,,,A*4f
$GNRMC,212033,A,5800.128174,N,05617.759628,E,,, 060325,,,A*4b
$GNRMC,212034,A,5800.128174,N,05617.759628,E,,, 060325,,,A*4c
$GNRMC,212035,A,5800.128174,N,05617.759171,E,,, 060325,,,A*46
$GNRMC,212036,A,5800.128174,N,05617.759171,E,,, 060325,,,A*45
$GNRMC,212037,A,5800.128174,N,05617.759171,E,,, 060325,,,A*44
$GNRMC,212038,A,5800.128174,N,05617.759171,E,,, 060325,,,A*4b
$GNRMC,212039,A,5800.128174,N,05617.759171,E,,, 060325,,,A*4a
$GNRMC,212040,A,5800.128174,N,05617.759171,E,,, 060325,,,A*44
$GNRMC,212041,A,5800.128174,N,05617.759171,E,,, 060325,,,A*45
$GNRMC,212042,A,5800.128174,N,05617.759171,E,,, 060325,,,A*46
$GNRMC,212043,A,5800.128174,N,05617.758942,E,,, 060325,,,A*4e
$GNRMC,212044,A,5800.128174,N,05617.758942,E,,, 060325,,,A*49
$GNRMC,212045,A,5800.128174,N,05617.758942,E,,, 060325,,,A*48
$GNRMC,212046,A,5800.128174,N,05617.758942,E,,, 060325,,,A*4b
$GNRMC,212047,A,5800.128174,N,05617.758942,E,,, 060325,,,A*4a
$GNRMC,212048,A,5800.128174,N,05617.758484,E,,, 060325,,,A*42
$GNRMC,212049,A,5800.128174,N,05617.758484,E,,, 060325,,,A*43
$GNRMC,212050,A,5800.128174,N,05617.758484,E,,, 060325,,,A*4b
$GNRMC,212051,A,5800.128174,N,05617.758484,E,,, 060325,,,A*4a
$GNRMC,212052,A,5800.128174,N,05617.758026,E,,, 060325,,,A*45
$GNRMC,212053,A,5800.128174,N,05617.758026,E,,, 060325,,,A*44
$GNRMC,212054,A,5800.127945,N,05617.758026,E,,, 060325,,,A*46
$GNRMC,212055,A,5800.127945,N,05617.758026,E,,, 060325,,,A*47
$GNRMC,212056,A,5800.127945,N,05617.757797,E,,, 060325,,,A*46
$GNRMC,212057,A,5800.127945,N,05617.757797,E,,, 060325,,,A*47
$GNRMC,212058,A,5800.127487,N,05617.757797,E,,, 060325,,,A*4b
$GNRMC,212059,A,5800.127487,N,05617.757797,E,,, 060325,,,A*4a
$GNRMC,212100,A,5800.127487,N,05617.757797,E,,, 060325,,,A*47
$GNRMC,212101,A,5800.127487,N,05617.757339,E,,, 060325,,,A*46
$GNRMC,212102,A,5800.127487,N,05617.757339,E,,, 060325,,,A*45
$GNRMC,212103,A,5800.127487,N,05617.757339,E,,, 060325,,,A*44
$GNRMC,212104,A,5800.127029,N,05617.757339,E,,, 060325,,,A*43
$GNRMC,212105,A,5800.127029,N,05617.757339,E,,, 060325,,,A*42
$GNRMC,212106,A,5800.127029,N,05617.757339,E,,, 060325,,,A*41
$GNRMC,212107,A,5800.127029,N,05617.757339,E,,, 060325,,,A*40
$GNRMC,212108,A,5800.127029,N,05617.757339,E,,, 060325,,,A*4f
$GNRMC,212109,A,5800.127029,N,05617.756882,E,,, 060325,,,A*44
$GNRMC,212110,A,5800.126801,N,05617.756882,E,,, 060325,,,A*4f
$GNRMC,212111,A,5800.126801,N,05617.756882,E,,, 060325,,,A*4e
$GNRMC,212112,A,5800.126801,N,05617.756882,E,,, 060325,,,A*4d
$GNRMC,212113,A,5800.126801,N,05617.756882,E,,, 060325,,,A*4c
$GNRMC,212114,A,5800.126801,N,05617.756882,E,,, 060325,,,A*4b
$GNRMC,212115,A,5800.126801,N,05617.756882,E,,, 060325,,,A*4a
$GNRMC,212116,A,5800.126801,N,05617.756882,E,,, 060325,,,A*49
$GNRMC,212117,A,5800.126343,N,05617.756882,E,,, 060325,,,A*45
$GNRMC,212118,A,5800.126343,N,05617.756653,E,,, 060325,,,A*48
$GNRMC,212119,A,5800.126343,N,05617.756653,E,,, 060325,,,A*49
$GNRMC,212120,A,5800.125885,N,05617.756653,E,,, 060325,,,A*41
$GNRMC,212121,A,5800.125885,N,05617.756195,E,,, 060325,,,A*4d
$GNRMC,212122,A,5800.125885,N,05617.756195,E,,, 060325,,,A*4e
$GNRMC,212123,A,5800.125656,N,05617.756195,E,,, 060325,,,A*4f
$GNRMC,212124,A,5800.125656,N,05617.756195,E,,, 060325,,,A*48
$GNRMC,212125,A,5800.125656,N,05617.755737,E,,, 060325,,,A*44
$GNRMC,212126,A,5800.125198,N,05617.755737,E,,, 060325,,,A*42
$GNRMC,212127,A,5800.125198,N,05617.755737,E,,, 060325,,,A*43
$GNRMC,212128,A,5800.124741,N,05617.755280,E,,, 060325,,,A*46
$GNRMC,212129,A,5800.124741,N,05617.755280,E,,, 060325,,,A*47
$GNRMC,212130,A,5800.124741,N,05617.755280,E,,, 060325,,,A*4f
$GNRMC,212131,A,5800.124741,N,05617.755280,E,,, 060325,,,A*4e
$GNRMC,212132,A,5800.124741,N,05617.755280,E,,, 060325,,,A*4d
$GNRMC,212133,A,5800.124741,N,05617.755280,E,,, 060325,,,A*4c
$GNRMC,212134,A,5800.124741,N,05617.755280,E,,, 060325,,,A*4b
$GNRMC,212135,A,5800.124512,N,05617.755280,E,,, 060325,,,A*4e
$GNRMC,212136,A,5800.124512,N,05617.755280,E,,, 060325,,,A*4d
$GNRMC,212137,A,5800.124512,N,05617.755280,E,,, 060325,,,A*4c
$GNRMC,212138,A,5800.124512,N,05617.755280,E,,, 060325,,,A*43
$GNRMC,212139,A,5800.124512,N,05617.755280,E,,, 060325,,,A*42
$GNRMC,212140,A,5800.124054,N,05617.755280,E,,, 060325,,,A*4b
$GNRMC,212141,A,5800.124054,N,05617.755280,E,,, 060325,,,A*4a
$GNRMC,212142,A,5800.124054,N,05617.755280,E,,, 060325,,,A*49
$GNRMC,212143,A,5800.124054,N,05617.755051,E,,, 060325,,,A*46
$GNRMC,212144,A,5800.124054,N,05617.755051,E,,, 060325,,,A*41
$GNRMC,212145,A,5800.123596,N,05617.755051,E,,, 060325,,,A*4c
$GNRMC,212146,A,5800.123596,N,05617.755051,E,,, 060325,,,A*4f
$GNRMC,212147,A,5800.123596,N,05617.755051,E,,, 060325,,,A*4e
$GNRMC,212148,A,5800.123596,N,05617.755051,E,,, 060325,,,A*41
$GNRMC,212149,A,5800.123367,N,05617.755051,E,,, 060325,,,A*48
$GNRMC,212150,A,5800.123367,N,05617.755051,E,,, 060325,,,A*40
$GNRMC,212151,A,5800.123367,N,05617.755051,E,,, 060325,,,A*41
$GNRMC,212152,A,5800.123367,N,05617.755051,E,,, 060325,,,A*42
$GNRMC,212153,A,5800.123367,N,05617.755051,E,,, 060325,,,A*43
$GNRMC,212154,A,5800.123367,N,05617.754593,E,,, 060325,,,A*4e
$GNRMC,212155,A,5800.123367,N,05617.754593,E,,, 060325,,,A*4f
$GNRMC,212156,A,5800.123367,N,05617.754593,E,,, 060325,,,A*4c
$GNRMC,212157,A,5800.123596,N,05617.754593,E,,, 060325,,,A*45
$GNRMC,212158,A,5800.123596,N,05617.754593,E,,, 060325,,,A*4a
$GNRMC,212159,A,5800.123596,N,05617.754593,E,,, 060325,,,A*4b
$GNRMC,212200,A,5800.123596,N,05617.755051,E,,, 060325,,,A*4e
$GNRMC,212201,A,5800.123596,N,05617.755051,E,,, 060325,,,A*4f
$GNRMC,212202,A,5800.123596,N,05617.755051,E,,, 060325,,,A*4c
$GNRMC,212203,A,5800.123596,N,05617.755051,E,,, 060325,,,A*4d
$GNRMC,212204,A,5800.124054,N,05617.755051,E,,, 060325,,,A*46
$GNRMC,212205,A,5800.123596,N,05617.755051,E,,, 060325,,,A*4b
$GNRMC,212206,A,5800.124054,N,05617.755051,E,,, 060325,,,A*44
$GNRMC,212207,A,5800.124054,N,05617.755051,E,,, 060325,,,A*45
$GNRMC,212208,A,5800.124054,N,05617.755051,E,,, 060325,,,A*4a
$GNRMC,212209,A,5800.124054,N,05617.755051,E,,, 060325,,,A*4b
$GNRMC,212210,A,5800.123596,N,05617.755051,E,,, 060325,,,A*4f
$GNRMC,212211,A,5800.123596,N,05617.755051,E,,, 060325,,,A*4e
$GNRMC,212212,A,5800.123596,N,05617.755051,E,,, 060325,,,A*4d
$GNRMC,212213,A,5800.123596,N,05617.755051,E,,, 060325,,,A*4c
$GNRMC,212214,A,5800.123596,N,05617.755051,E,,, 060325,,,A*4b
$GNRMC,212215,A,5800.123596,N,05617.755051,E,,, 060325,,,A*4a
$GNRMC,212216,A,5800.123596,N,05617.755051,E,,, 060325,,,A*49
$GNRMC,212217,A,5800.123596,N,05617.755051,E,,, 060325,,,A*48
$GNRMC,212218,A,5800.123596,N,05617.755280,E,,, 060325,,,A*49
$GNRMC,212219,A,5800.123596,N,05617.755280,E,,, 060325,,,A*48
$GNRMC,212220,A,5800.123596,N,05617.755280,E,,, 060325,,,A*42
$GNRMC,212221,A,5800.123596,N,05617.755280,E,,, 060325,,,A*43
$GNRMC,212222,A,5800.123596,N,05617.755280,E,,, 060325,,,A*40
$GNRMC,212223,A,5800.123596,N,05617.755280,E,,, 060325,,,A*41
$GNRMC,212224,A,5800.123596,N,05617.755280,E,,, 060325,,,A*46
$GNRMC,212225,A,5800.123596,N,05617.755280,E,,, 060325,,,A*47
$GNRMC,212226,A,5800.123596,N,05617.755280,E,,, 060325,,,A*44
$GNRMC,212227,A,5800.123596,N,05617.755737,E,,, 060325,,,A*4c
$GNRMC,212228,A,5800.123596,N,05617.755737,E,,, 060325,,,A*43
$GNRMC,212229,A,5800.124054,N,05617.755737,E,,, 060325,,,A*4e
$GNRMC,212230,A,5800.124054,N,05617.755737,E,,, 060325,,,A*46
$GNRMC,212231,A,5800.124054,N,05617.755737,E,,, 060325,,,A*47
$GNRMC,212232,A,5800.123596,N,05617.755737,E,,, 060325,,,A*48
$GNRMC,212233,A,5800.123596,N,05617.755737,E,,, 060325,,,A*49
$GNRMC,212234,A,5800.123596,N,05617.755737,E,,, 060325,,,A*4e
$GNRMC,212235,A,5800.123596,N,05617.755737,E,,, 060325,,,A*4f
$GNRMC,212236,A,5800.123596,N,05617.755737,E,,, 060325,,,A*4c
$GNRMC,212237,A,5800.123596,N,05617.755737,E,,, 060325,,,A*4d
$GNRMC,212238,A,5800.123596,N,05617.755737,E,,, 060325,,,A*42
$GNRMC,212239,A,5800.123596,N,05617.755737,E,,, 060325,,,A*43
$GNRMC,212240,A,5800.124054,N,05617.756195,E,,, 060325,,,A*4c
$GNRMC,212241,A,5800.124054,N,05617.755737,E,,, 060325,,,A*40
$GNRMC,212242,A,5800.123596,N,05617.755737,E,,, 060325,,,A*4f
$GNRMC,212243,A,5800.123596,N,05617.755737,E,,, 060325,,,A*4e
$GNRMC,212244,A,5800.123596,N,05617.755737,E,,, 060325,,,A*49
$GNRMC,212245,A,5800.123596,N,05617.755737,E,,, 060325,,,A*48
$GNRMC,212246,A,5800.123596,N,05617.755737,E,,, 060325,,,A*4b
$GNRMC,212247,A,5800.123596,N,05617.755737,E,,, 060325,,,A*4a
$GNRMC,212248,A,5800.123596,N,05617.755737,E,,, 060325,,,A*45
$GNRMC,212249,A,5800.123367,N,05617.755737,E,,, 060325,,,A*4c
$GNRMC,212250,A,5800.123367,N,05617.755737,E,,, 060325,,,A*44
$GNRMC,212251,A,5800.123367,N,05617.755737,E,,, 060325,,,A*45
$GNRMC,212252,A,5800.123367,N,05617.755737,E,,, 060325,,,A*46
$GNRMC,212253,A,5800.123367,N,05617.755280,E,,, 060325,,,A*4e
$GNRMC,212254,A,5800.123367,N,05617.755280,E,,, 060325,,,A*49
$GNRMC,212255,A,5800.123367,N,05617.755280,E,,, 060325,,,A*48
$GNRMC,212256,A,5800.122910,N,05617.755280,E,,, 060325,,,A*40
$GNRMC,212257,A,5800.122910,N,05617.755280,E,,, 060325,,,A*41
$GNRMC,212258,A,5800.122910,N,05617.755280,E,,, 060325,,,A*4e
$GNRMC,212259,A,5800.122910,N,05617.755280,E,,, 060325,,,A*4f
$GNRMC,212300,A,5800.122910,N,05617.755280,E,,, 060325,,,A*42
$GNRMC,212301,A,5800.122910,N,05617.755280,E,,, 060325,,,A*43
$GNRMC,212302,A,5800.122910,N,05617.755280,E,,, 060325,,,A*40
$GNRMC,212303,A,5800.122910,N,05617.755280,E,,, 060325,,,A*41
$GNRMC,212304,A,5800.122910,N,05617.755280,E,,, 060325,,,A*46
$GNRMC,212305,A,5800.122910,N,05617.755280,E,,, 060325,,,A*47
$GNRMC,212306,A,5800.122910,N,05617.755280,E,,, 060325,,,A*44
$GNRMC,212307,A,5800.122910,N,05617.755280,E,,, 060325,,,A*45
$GNRMC,212308,A,5800.122910,N,05617.755280,E,,, 060325,,,A*4a
$GNRMC,212309,A,5800.122910,N,05617.755280,E,,, 060325,,,A*4b
$GNRMC,212310,A,5800.122910,N,05617.755737,E,,, 060325,,,A*4a
$GNRMC,212311,A,5800.122910,N,05617.755737,E,,, 060325,,,A*4b
$GNRMC,212312,A,5800.122910,N,05617.755737,E,,, 060325,,,A*48
$GNRMC,212313,A,5800.122910,N,05617.755737,E,,, 060325,,,A*49
$GNRMC,212314,A,5800.122910,N,05617.755737,E,,, 060325,,,A*4e
$GNRMC,212315,A,5800.122910,N,05617.756195,E,,, 060325,,,A*42
$GNRMC,212316,A,5800.122910,N,05617.756195,E,,, 060325,,,A*41
$GNRMC,212317,A,5800.122910,N,05617.756195,E,,, 060325,,,A*40
$GNRMC,212318,A,5800.122910,N,05617.756195,E,,, 060325,,,A*4f
$GNRMC,212319,A,5800.123367,N,05617.756195,E,,, 060325,,,A*45
$GNRMC,212320,A,5800.123367,N,05617.756195,E,,, 060325,,,A*4f
$GNRMC,212321,A,5800.123367,N,05617.756195,E,,, 060325,,,A*4e
$GNRMC,212322,A,5800.123367,N,05617.756195,E,,, 060325,,,A*4d
$GNRMC,212323,A,5800.123596,N,05617.756195,E,,, 060325,,,A*44
$GNRMC,212324,A,5800.123596,N,05617.756195,E,,, 060325,,,A*43
$GNRMC,212325,A,5800.123596,N,05617.756195,E,,, 060325,,,A*42
$GNRMC,212326,A,5800.123596,N,05617.756653,E,,, 060325,,,A*4c
$GNRMC,212327,A,5800.124054,N,05617.756653,E,,, 060325,,,A*41
$GNRMC,212328,A,5800.124054,N,05617.756653,E,,, 060325,,,A*4e
$GNRMC,212329,A,5800.124054,N,05617.756653,E,,, 060325,,,A*4f
$GNRMC,212330,A,5800.124054,N,05617.756653,E,,, 060325,,,A*47
$GNRMC,212331,A,5800.124054,N,05617.756653,E,,, 060325,,,A*46
$GNRMC,212332,A,5800.124054,N,05617.756653,E,,, 060325,,,A*45
$GNRMC,212333,A,5800.124512,N,05617.756653,E,,, 060325,,,A*43
$GNRMC,212334,A,5800.124512,N,05617.756882,E,,, 060325,,,A*46
$GNRMC,212335,A,5800.124512,N,05617.756882,E,,, 060325,,,A*47
$GNRMC,212336,A,5800.124512,N,05617.756882,E,,, 060325,,,A*44
$GNRMC,212337,A,5800.124512,N,05617.756882,E,,, 060325,,,A*45
$GNRMC,212338,A,5800.124512,N,05617.756882,E,,, 060325,,,A*4a
$GNRMC,212339,A,5800.124741,N,05617.757339,E,,, 060325,,,A*45
$GNRMC,212340,A,5800.124512,N,05617.757339,E,,, 060325,,,A*4f
$GNRMC,212341,A,5800.124512,N,05617.756882,E,,, 060325,,,A*44
$GNRMC,212342,A,5800.124512,N,05617.756882,E,,, 060325,,,A*47
$GNRMC,212343,A,5800.124512,N,05617.756882,E,,, 060325,,,A*46
$GNRMC,212344,A,5800.124512,N,05617.756882,E,,, 060325,,,A*41
$GNRMC,212345,A,5800.124512,N,05617.756882,E,,, 060325,,,A*40
$GNRMC,212346,A,5800.124512,N,05617.756882,E,,, 060325,,,A*43
$GNRMC,212347,A,5800.124512,N,05617.756882,E,,, 060325,,,A*42
$GNRMC,212348,A,5800.124512,N,05617.757339,E,,, 060325,,,A*47
$GNRMC,212349,A,5800.124512,N,05617.756882,E,,, 060325,,,A*4c
$GNRMC,212350,A,5800.124512,N,05617.756882,E,,, 060325,,,A*44
$GNRMC,212351,A,5800.124054,N,05617.756882,E,,, 060325,,,A*42
$GNRMC,212352,A,5800.124054,N,05617.756882,E,,, 060325,,,A*41
$GNRMC,212353,A,5800.124054,N,05617.756882,E,,, 060325,,,A*40
$GNRMC,212354,A,5800.124054,N,05617.756882,E,,, 060325,,,A*47
$GNRMC,212355,A,5800.124054,N,05617.756882,E,,, 060325,,,A*46
$GNRMC,212356,A,5800.124054,N,05617.756882,E,,, 060325,,,A*45
$GNRMC,212357,A,5800.124054,N,05617.756882,E,,, 060325,,,A*44
$GNRMC,212358,A,5800.124054,N,05617.756882,E,,, 060325,,,A*4b
$GNRMC,212359,A,5800.123596,N,05617.756882,E,,, 060325,,,A*46
$GNRMC,212400,A,5800.123596,N,05617.756882,E,,, 060325,,,A*4d
$GNRMC,212401,A,5800.123596,N,05617.756882,E,,, 060325,,,A*4c
$GNRMC,212402,A,5800.123596,N,05617.756882,E,,, 060325,,,A*4f
$GNRMC,212403,A,5800.123596,N,05617.756882,E,,, 060325,,,A*4e
$GNRMC,212404,A,5800.123596,N,05617.756882,E,,, 060325,,,A*49
$GNRMC,212405,A,5800.123596,N,05617.756882,E,,, 060325,,,A*48
$GNRMC,212406,A,5800.123596,N,05617.757339,E,,, 060325,,,A*41
$GNRMC,212407,A,5800.124054,N,05617.757339,E,,, 060325,,,A*4c
$GNRMC,212408,A,5800.124054,N,05617.757339,E,,, 060325,,,A*43
$GNRMC,212409,A,5800.124054,N,05617.757339,E,,, 060325,,,A*42
$GNRMC,212410,A,5800.124054,N,05617.757339,E,,, 060325,,,A*4a
$GNRMC,212411,A,5800.124512,N,05617.757797,E,,, 060325,,,A*4c
$GNRMC,212412,A,5800.124512,N,05617.757797,E,,, 060325,,,A*4f
$GNRMC,212413,A,5800.124512,N,05617.757797,E,,, 060325,,,A*4e
$GNRMC,212414,A,5800.124512,N,05617.757797,E,,, 060325,,,A*49
$GNRMC,212415,A,5800.124512,N,05617.757797,E,,, 060325,,,A*48
$GNRMC,212416,A,5800.124741,N,05617.758026,E,,, 060325,,,A*4d
$GNRMC,212417,A,5800.124741,N,05617.758026,E,,, 060325,,,A*4c
$GNRMC,212418,A,5800.124741,N,05617.758026,E,,, 060325,,,A*43
$GNRMC,212419,A,5800.124741,N,05617.758484,E,,, 060325,,,A*4e
$GNRMC,212420,A,5800.124741,N,05617.758484,E,,, 060325,,,A*44
$GNRMC,212421,A,5800.125198,N,05617.758484,E,,, 060325,,,A*46
$GNRMC,212422,A,5800.125198,N,05617.758484,E,,, 060325,,,A*45
$GNRMC,212423,A,5800.125198,N,05617.758942,E,,, 060325,,,A*43
$GNRMC,212424,A,5800.125198,N,05617.758942,E,,, 060325,,,A*44
$GNRMC,212425,A,5800.125198,N,05617.758942,E,,, 060325,,,A*45
$GNRMC,212426,A,5800.125198,N,05617.758942,E,,, 060325,,,A*46
$GNRMC,212427,A,5800.125198,N,05617.758942,E,,, 060325,,,A*47
$GNRMC,212428,A,5800.125656,N,05617.759171,E,,, 060325,,,A*44
$GNRMC,212429,A,5800.125656,N,05617.759171,E,,, 060325,,,A*45
$GNRMC,212430,A,5800.125656,N,05617.759171,E,,, 060325,,,A*4d
$GNRMC,212431,A,5800.125656,N,05617.759628,E,,, 060325,,,A*47
$GNRMC,212432,A,5800.125656,N,05617.759628,E,,, 060325,,,A*44
$GNRMC,212433,A,5800.125656,N,05617.759628,E,,, 060325,,,A*45
$GNRMC,212434,A,5800.125656,N,05617.759628,E,,, 060325,,,A*42
$GNRMC,212435,A,5800.125885,N,05617.760086,E,,, 060325,,,A*4b
$GNRMC,212436,A,5800.125885,N,05617.760086,E,,, 060325,,,A*48
$GNRMC,212437,A,5800.125885,N,05617.760086,E,,, 060325,,,A*49
$GNRMC,212438,A,5800.125885,N,05617.760086,E,,, 060325,,,A*46
$GNRMC,212439,A,5800.125885,N,05617.760086,E,,, 060325,,,A*47
$GNRMC,212440,A,5800.125885,N,05617.760086,E,,, 060325,,,A*49
$GNRMC,212441,A,5800.126343,N,05617.760086,E,,, 060325,,,A*4a
$GNRMC,212442,A,5800.126343,N,05617.760315,E,,, 060325,,,A*40
$GNRMC,212443,A,5800.126343,N,05617.760773,E,,, 060325,,,A*45
$GNRMC,212444,A,5800.126801,N,05617.761459,E,,, 060325,,,A*45
$GNRMC,212445,A,5800.127029,N,05617.762604,E,,, 060325,,,A*4e
$GNRMC,212446,A,5800.127487,N,05617.764206,E,,, 060325,,,A*4d
$GNRMC,212447,A,5800.127487,N,05617.766037,E,,, 060325,,,A*4e
$GNRMC,212448,A,5800.127487,N,05617.768784,E,,, 060325,,,A*40
$GNRMC,212449,A,5800.127029,N,05617.771530,E,,, 060325,,,A*44
$GNRMC,212450,A,5800.126801,N,05617.774277,E,,, 060325,,,A*4e
$GNRMC,212451,A,5800.126343,N,05617.776794,E,,, 060325,,,A*48
$GNRMC,212452,A,5800.126343,N,05617.779312,E,,, 060325,,,A*4e
$GNRMC,212453,A,5800.126801,N,05617.780685,E,,, 060325,,,A*4f
$GNRMC,212454,A,5800.127487,N,05617.781601,E,,, 060325,,,A*46
$GNRMC,212455,A,5800.128174,N,05617.781601,E,,, 060325,,,A*41
$GNRMC,212456,A,5800.129089,N,05617.781601,E,,, 060325,,,A*40
$GNRMC,212457,A,5800.128632,N,05617.781143,E,,, 060325,,,A*47
$GNRMC,212458,A,5800.127945,N,05617.780685,E,,, 060325,,,A*44
$GNRMC,212459,A,5800.127487,N,05617.780685,E,,, 060325,,,A*46
$GNRMC,212500,A,5800.127029,N,05617.780685,E,,, 060325,,,A*4b
$GNRMC,212501,A,5800.127029,N,05617.780685,E,,, 060325,,,A*4a
$GNRMC,212502,A,5800.127029,N,05617.779999,E,,, 060325,,,A*4d
$GNRMC,212503,A,5800.127029,N,05617.777939,E,,, 060325,,,A*48
$GNRMC,212504,A,5800.127487,N,05617.775421,E,,, 060325,,,A*49
$GNRMC,212505,A,5800.127029,N,05617.771988,E,,, 060325,,,A*42
$GNRMC,212506,A,5800.127029,N,05617.767639,E,,, 060325,,,A*43
$GNRMC,212507,A,5800.126801,N,05617.763519,E,,, 060325,,,A*44
$GNRMC,212508,A,5800.126801,N,05617.759171,E,,, 060325,,,A*48
$GNRMC,212509,A,5800.126343,N,05617.755051,E,,, 060325,,,A*4b
$GNRMC,212510,A,5800.125885,N,05617.750702,E,,, 060325,,,A*45
$GNRMC,212511,A,5800.125885,N,05617.747040,E,,, 060325,,,A*43
$GNRMC,212512,A,5800.125656,N,05617.743149,E,,, 060325,,,A*4c
$GNRMC,212513,A,5800.125198,N,05617.739258,E,,, 060325,,,A*46
$GNRMC,212514,A,5800.125198,N,05617.736282,E,,, 060325,,,A*49
$GNRMC,212515,A,5800.125198,N,05617.733078,E,,, 060325,,,A*4a
$GNRMC,212516,A,5800.125198,N,05617.730331,E,,, 060325,,,A*44
$GNRMC,212517,A,5800.124741,N,05617.727356,E,,, 060325,,,A*41
$GNRMC,212518,A,5800.124512,N,05617.725067,E,,, 060325,,,A*49
$GNRMC,212519,A,5800.124054,N,05617.722778,E,,, 060325,,,A*41
$GNRMC,212520,A,5800.124054,N,05617.721176,E,,, 060325,,,A*40
$GNRMC,212521,A,5800.124054,N,05617.720032,E,,, 060325,,,A*41
$GNRMC,212522,A,5800.124054,N,05617.719574,E,,, 060325,,,A*4f
$GNRMC,212523,A,5800.123596,N,05617.718887,E,,, 060325,,,A*42
$GNRMC,212524,A,5800.123596,N,05617.717743,E,,, 060325,,,A*4d
$GNRMC,212525,A,5800.123367,N,05617.716599,E,,, 060325,,,A*40
$GNRMC,212526,A,5800.122910,N,05617.715454,E,,, 060325,,,A*4b
$GNRMC,212527,A,5800.121307,N,05617.713852,E,,, 060325,,,A*49
$GNRMC,212528,A,5800.119705,N,05617.713165,E,,, 060325,,,A*46
$GNRMC,212529,A,5800.117188,N,05617.712479,E,,, 060325,,,A*43
$GNRMC,212530,A,5800.114441,N,05617.712021,E,,, 060325,,,A*41
$GNRMC,212531,A,5800.112152,N,05617.712021,E,,, 060325,,,A*41
$GNRMC,212532,A,5800.110550,N,05617.712479,E,,, 060325,,,A*4f
$GNRMC,212533,A,5800.109863,N,05617.712479,E,,, 060325,,,A*4b
$GNRMC,212534,A,5800.109863,N,05617.712479,E,,, 060325,,,A*4c
$GNRMC,212535,A,5800.109406,N,05617.712708,E,,, 060325,,,A*47
$GNRMC,212536,A,5800.108719,N,05617.712708,E,,, 060325,,,A*48
$GNRMC,212537,A,5800.107117,N,05617.712708,E,,, 060325,,,A*4e
$GNRMC,212538,A,5800.105515,N,05617.713623,E,,, 060325,,,A*4c
$GNRMC,212539,A,5800.103226,N,05617.713852,E,,, 060325,,,A*44
$GNRMC,212540,A,5800.101395,N,05617.714767,E,,, 060325,,,A*4f
$GNRMC,212541,A,5800.098190,N,05617.714996,E,,, 060325,,,A*48
$GNRMC,212542,A,5800.094757,N,05617.714996,E,,, 060325,,,A*4a
$GNRMC,212543,A,5800.091324,N,05617.715454,E,,, 060325,,,A*4c
$GNRMC,212544,A,5800.087662,N,05617.717056,E,,, 060325,,,A*4f
$GNRMC,212545,A,5800.083771,N,05617.717056,E,,, 060325,,,A*49
$GNRMC,212546,A,5800.079193,N,05617.717056,E,,, 060325,,,A*45
$GNRMC,212547,A,5800.074844,N,05617.717743,E,,, 060325,,,A*49
$GNRMC,212548,A,5800.070267,N,05617.718430,E,,, 060325,,,A*41
$GNRMC,212549,A,5800.065689,N,05617.719345,E,,, 060325,,,A*44
$GNRMC,212550,A,5800.060654,N,05617.718887,E,,, 060325,,,A*4d
$GNRMC,212551,A,5800.055618,N,05617.718430,E,,, 060325,,,A*42
$GNRMC,212552,A,5800.051041,N,05617.718201,E,,, 060325,,,A*4b
$GNRMC,212553,A,5800.046921,N,05617.717056,E,,, 060325,,,A*4c
$GNRMC,212554,A,5800.043488,N,05617.717285,E,,, 060325,,,A*4c
$GNRMC,212555,A,5800.039825,N,05617.718201,E,,, 060325,,,A*48
$GNRMC,212556,A,5800.036850,N,05617.721176,E,,, 060325,,,A*4f
$GNRMC,212557,A,5800.034561,N,05617.725067,E,,, 060325,,,A*46
$GNRMC,212558,A,5800.032730,N,05617.729645,E,,, 060325,,,A*43
$GNRMC,212559,A,5800.030670,N,05617.734222,E,,, 060325,,,A*4c
$GNRMC,212600,A,5800.029297,N,05617.739944,E,,, 060325,,,A*40
$GNRMC,212601,A,5800.027237,N,05617.746124,E,,, 060325,,,A*43
$GNRMC,212602,A,5800.025635,N,05617.752304,E,,, 060325,,,A*41
$GNRMC,212603,A,5800.024490,N,05617.758026,E,,, 060325,,,A*45
$GNRMC,212604,A,5800.023117,N,05617.763748,E,,, 060325,,,A*48
$GNRMC,212605,A,5800.022202,N,05617.768784,E,,, 060325,,,A*44
$GNRMC,212606,A,5800.021057,N,05617.771988,E,,, 060325,,,A*4c
$GNRMC,212607,A,5800.020370,N,05617.774963,E,,, 060325,,,A*4a
$GNRMC,212608,A,5800.019684,N,05617.777252,E,,, 060325,,,A*4b
$GNRMC,212609,A,5800.018539,N,05617.779541,E,,, 060325,,,A*45
$GNRMC,212610,A,5800.017624,N,05617.781830,E,,, 060325,,,A*41
$GNRMC,212611,A,5800.016479,N,05617.785263,E,,, 060325,,,A*43
$GNRMC,212612,A,5800.014877,N,05617.788696,E,,, 060325,,,A*43
$GNRMC,212613,A,5800.014191,N,05617.792358,E,,, 060325,,,A*4f
$GNRMC,212614,A,5800.013733,N,05617.797165,E,,, 060325,,,A*48
$GNRMC,212615,A,5800.014648,N,05617.802658,E,,, 060325,,,A*49
$GNRMC,212616,A,5800.016022,N,05617.808838,E,,, 060325,,,A*40
$GNRMC,212617,A,5800.018768,N,05617.815247,E,,, 060325,,,A*48
$GNRMC,212618,A,5800.021973,N,05617.822571,E,,, 060325,,,A*4f
$GNRMC,212619,A,5800.024948,N,05617.829895,E,,, 060325,,,A*4f
$GNRMC,212620,A,5800.028839,N,05617.837906,E,,, 060325,,,A*4a
$GNRMC,212621,A,5800.032272,N,05617.845917,E,,, 060325,,,A*40
$GNRMC,212622,A,5800.036163,N,05617.855301,E,,, 060325,,,A*48
$GNRMC,212623,A,5800.039825,N,05617.863998,E,,, 060325,,,A*42
$GNRMC,212624,A,5800.043030,N,05617.873611,E,,, 060325,,,A*4b
$GNRMC,212625,A,5800.046005,N,05617.883224,E,,, 060325,,,A*44
$GNRMC,212626,A,5800.048752,N,05617.892380,E,,, 060325,,,A*43
$GNRMC,212627,A,5800.051041,N,05617.900620,E,,, 060325,,,A*4a
$GNRMC,212628,A,5800.053101,N,05617.907944,E,,, 060325,,,A*48
$GNRMC,212629,A,5800.054474,N,05617.913895,E,,, 060325,,,A*41
$GNRMC,212630,A,5800.056076,N,05617.919388,E,,, 060325,,,A*40
$GNRMC,212631,A,5800.057220,N,05617.924423,E,,, 060325,,,A*49
$GNRMC,212632,A,5800.057907,N,05617.927856,E,,, 060325,,,A*49
$GNRMC,212633,A,5800.058823,N,05617.930832,E,,, 060325,,,A*44
$GNRMC,212634,A,5800.059052,N,05617.933121,E,,, 060325,,,A*44
$GNRMC,212635,A,5800.059509,N,05617.935181,E,,, 060325,,,A*42
$GNRMC,212636,A,5800.059967,N,05617.935867,E,,, 060325,,,A*44
$GNRMC,212637,A,5800.059967,N,05617.936325,E,,, 060325,,,A*4b
$GNRMC,212638,A,5800.059967,N,05617.936554,E,,, 060325,,,A*44
$GNRMC,212639,A,5800.059967,N,05617.936554,E,,, 060325,,,A*45
$GNRMC,212640,A,5800.059967,N,05617.936554,E,,, 060325,,,A*4b
$GNRMC,212641,A,5800.059967,N,05617.936554,E,,, 060325,,,A*4a
$GNRMC,212642,A,5800.059967,N,05617.937012,E,,, 060325,,,A*4f
$GNRMC,212643,A,5800.059967,N,05617.937012,E,,, 060325,,,A*4e
$GNRMC,212644,A,5800.059509,N,05617.937012,E,,, 060325,,,A*4d
$GNRMC,212645,A,5800.059509,N,05617.937012,E,,, 060325,,,A*4c
$GNRMC,212646,A,5800.059509,N,05617.937012,E,,, 060325,,,A*4f
$GNRMC,212647,A,5800.059509,N,05617.937012,E,,, 060325,,,A*4e
$GNRMC,212648,A,5800.059967,N,05617.937698,E,,, 060325,,,A*41
$GNRMC,212649,A,5800.060196,N,05617.939987,E,,, 060325,,,A*43
$GNRMC,212650,A,5800.061111,N,05617.943192,E,,, 060325,,,A*44
$GNRMC,212651,A,5800.061798,N,05617.947311,E,,, 060325,,,A*4f
$GNRMC,212652,A,5800.063400,N,05617.952805,E,,, 060325,,,A*46
$GNRMC,212653,A,5800.065002,N,05617.958984,E,,, 060325,,,A*45
$GNRMC,212654,A,5800.066833,N,05617.965851,E,,, 060325,,,A*4c
$GNRMC,212655,A,5800.068665,N,05617.973404,E,,, 060325,,,A*45
$GNRMC,212656,A,5800.070724,N,05617.981873,E,,, 060325,,,A*4a
$GNRMC,212657,A,5800.073013,N,05617.991257,E,,, 060325,,,A*46
$GNRMC,212658,A,5800.075760,N,05618.001099,E,,, 060325,,,A*43
$GNRMC,212659,A,5800.078278,N,05618.011627,E,,, 060325,,,A*41
$GNRMC,212700,A,5800.081024,N,05618.022614,E,,, 060325,,,A*41
$GNRMC,212701,A,5800.084000,N,05618.034286,E,,, 060325,,,A*4b
$GNRMC,212702,A,5800.087204,N,05618.046417,E,,, 060325,,,A*46
$GNRMC,212703,A,5800.090179,N,05618.059235,E,,, 060325,,,A*40
$GNRMC,212704,A,5800.093613,N,05618.071823,E,,, 060325,,,A*48
$GNRMC,212705,A,5800.096817,N,05618.084412,E,,, 060325,,,A*42
$GNRMC,212706,A,5800.100250,N,05618.097229,E,,, 060325,,,A*4a
$GNRMC,212707,A,5800.102997,N,05618.109360,E,,, 060325,,,A*43
$GNRMC,212708,A,5800.105972,N,05618.122177,E,,, 060325,,,A*4d
$GNRMC,212709,A,5800.108948,N,05618.133621,E,,, 060325,,,A*4c
$GNRMC,212710,A,5800.111694,N,05618.143921,E,,, 060325,,,A*4a
$GNRMC,212711,A,5800.114441,N,05618.154449,E,,, 060325,,,A*41
$GNRMC,212712,A,5800.116730,N,05618.164291,E,,, 060325,,,A*45
$GNRMC,212713,A,5800.119476,N,05618.174362,E,,, 060325,,,A*46
$GNRMC,212714,A,5800.121765,N,05618.183975,E,,, 060325,,,A*4f
$GNRMC,212715,A,5800.124741,N,05618.193130,E,,, 060325,,,A*45
$GNRMC,212716,A,5800.128174,N,05618.202057,E,,, 060325,,,A*41
$GNRMC,212717,A,5800.131607,N,05618.210754,E,,, 060325,,,A*4c
$GNRMC,212718,A,5800.135498,N,05618.218994,E,,, 060325,,,A*49
$GNRMC,212719,A,5800.139389,N,05618.227005,E,,, 060325,,,A*4e
$GNRMC,212720,A,5800.143280,N,05618.234558,E,,, 060325,,,A*4e
$GNRMC,212721,A,5800.147171,N,05618.241882,E,,, 060325,,,A*4e
$GNRMC,212722,A,5800.151291,N,05618.248749,E,,, 060325,,,A*46
$GNRMC,212723,A,5800.154724,N,05618.254929,E,,, 060325,,,A*4c
$GNRMC,212724,A,5800.158615,N,05618.261108,E,,, 060325,,,A*49
$GNRMC,212725,A,5800.162048,N,05618.266830,E,,, 060325,,,A*4a
$GNRMC,212726,A,5800.165939,N,05618.270264,E,,, 060325,,,A*4d
$GNRMC,212727,A,5800.169373,N,05618.273697,E,,, 060325,,,A*4f
$GNRMC,212728,A,5800.172348,N,05618.277588,E,,, 060325,,,A*4b
$GNRMC,212729,A,5800.175552,N,05618.281021,E,,, 060325,,,A*4f
$GNRMC,212730,A,5800.178070,N,05618.284225,E,,, 060325,,,A*4c
$GNRMC,212731,A,5800.180588,N,05618.286514,E,,, 060325,,,A*4f
$GNRMC,212732,A,5800.182877,N,05618.288803,E,,, 060325,,,A*46
$GNRMC,212733,A,5800.184708,N,05618.291550,E,,, 060325,,,A*45
$GNRMC,212734,A,5800.187454,N,05618.293839,E,,, 060325,,,A*4b
$GNRMC,212735,A,5800.189743,N,05618.296356,E,,, 060325,,,A*46
$GNRMC,212736,A,5800.192719,N,05618.298645,E,,, 060325,,,A*49
$GNRMC,212737,A,5800.195923,N,05618.301163,E,,, 060325,,,A*4a
$GNRMC,212738,A,5800.199585,N,05618.304138,E,,, 060325,,,A*42
$GNRMC,212739,A,5800.203476,N,05618.308029,E,,, 060325,,,A*43
$GNRMC,212740,A,5800.207367,N,05618.311920,E,,, 060325,,,A*46
$GNRMC,212741,A,5800.211487,N,05618.315582,E,,, 060325,,,A*49
$GNRMC,212742,A,5800.216293,N,05618.320160,E,,, 060325,,,A*40
$GNRMC,212743,A,5800.220871,N,05618.324966,E,,, 060325,,,A*48
$GNRMC,212744,A,5800.225906,N,05618.329544,E,,, 060325,,,A*4a
$GNRMC,212745,A,5800.230484,N,05618.334122,E,,, 060325,,,A*40
$GNRMC,212746,A,5800.235291,N,05618.338699,E,,, 060325,,,A*4f
$GNRMC,212747,A,5800.240097,N,05618.343277,E,,, 060325,,,A*40
$GNRMC,212748,A,5800.244675,N,05618.347855,E,,, 060325,,,A*4f
$GNRMC,212749,A,5800.248795,N,05618.352203,E,,, 060325,,,A*40
$GNRMC,212750,A,5800.252686,N,05618.356323,E,,, 060325,,,A*47
$GNRMC,212751,A,5800.256577,N,05618.359756,E,,, 060325,,,A*46
$GNRMC,212752,A,5800.260010,N,05618.363647,E,,, 060325,,,A*4c
$GNRMC,212753,A,5800.262985,N,05618.366623,E,,, 060325,,,A*4d
$GNRMC,212754,A,5800.266190,N,05618.370285,E,,, 060325,,,A*4d
$GNRMC,212755,A,5800.269165,N,05618.373260,E,,, 060325,,,A*41
$GNRMC,212756,A,5800.272598,N,05618.376694,E,,, 060325,,,A*44
$GNRMC,212757,A,5800.275803,N,05618.380127,E,,, 060325,,,A*4b
$GNRMC,212758,A,5800.278778,N,05618.382874,E,,, 060325,,,A*47
$GNRMC,212759,A,5800.281754,N,05618.386307,E,,, 060325,,,A*45
$GNRMC,212800,A,5800.284958,N,05618.389740,E,,, 060325,,,A*49
$GNRMC,212801,A,5800.287704,N,05618.392487,E,,, 060325,,,A*4e
$GNRMC,212802,A,5800.289536,N,05618.395233,E,,, 060325,,,A*4e
$GNRMC,212803,A,5800.291367,N,05618.397064,E,,, 060325,,,A*46
$GNRMC,212804,A,5800.293427,N,05618.398895,E,,, 060325,,,A*49
$GNRMC,212805,A,5800.294800,N,05618.400497,E,,, 060325,,,A*4e
$GNRMC,212806,A,5800.296402,N,05618.402328,E,,, 060325,,,A*40
$GNRMC,212807,A,5800.298004,N,05618.403931,E,,, 060325,,,A*4e
$GNRMC,212808,A,5800.299149,N,05618.405533,E,,, 060325,,,A*40
$GNRMC,212809,A,5800.299835,N,05618.406219,E,,, 060325,,,A*4f
$GNRMC,212810,A,5800.300293,N,05618.407135,E,,, 060325,,,A*4c
$GNRMC,212811,A,5800.300293,N,05618.407364,E,,, 060325,,,A*4b
$GNRMC,212812,A,5800.300751,N,05618.407364,E,,, 060325,,,A*43
$GNRMC,212813,A,5800.300751,N,05618.407822,E,,, 060325,,,A*4b
$GNRMC,212814,A,5800.300751,N,05618.407822,E,,, 060325,,,A*4c
$GNRMC,212815,A,5800.300751,N,05618.407822,E,,, 060325,,,A*4d
$GNRMC,212816,A,5800.300751,N,05618.408279,E,,, 060325,,,A*45
$GNRMC,212817,A,5800.300751,N,05618.408279,E,,, 060325,,,A*44
$GNRMC,212818,A,5800.300751,N,05618.408279,E,,, 060325,,,A*4b
$GNRMC,212819,A,5800.300751,N,05618.408279,E,,, 060325,,,A*4a
$GNRMC,212820,A,5800.300293,N,05618.408508,E,,, 060325,,,A*4a
$GNRMC,212821,A,5800.300293,N,05618.408508,E,,, 060325,,,A*4b
$GNRMC,212822,A,5800.300293,N,05618.408508,E,,, 060325,,,A*48
$GNRMC,212823,A,5800.300293,N,05618.408508,E,,, 060325,,,A*49
$GNRMC,212824,A,5800.300293,N,05618.408508,E,,, 060325,,,A*4e
$GNRMC,212825,A,5800.300293,N,05618.408966,E,,, 060325,,,A*4b
$GNRMC,212826,A,5800.300293,N,05618.408966,E,,, 060325,,,A*48
$GNRMC,212827,A,5800.300293,N,05618.408966,E,,, 060325,,,A*49
$GNRMC,212828,A,5800.300293,N,05618.409424,E,,, 060325,,,A*4c
$GNRMC,212829,A,5800.300293,N,05618.409424,E,,, 060325,,,A*4d
$GNRMC,212830,A,5800.300751,N,05618.409424,E,,, 060325,,,A*4e
$GNRMC,212831,A,5800.300751,N,05618.409424,E,,, 060325,,,A*4f
$GNRMC,212832,A,5800.300751,N,05618.409424,E,,, 060325,,,A*4c
$GNRMC,212833,A,5800.300751,N,05618.409424,E,,, 060325,,,A*4d
$GNRMC,212834,A,5800.300751,N,05618.409653,E,,, 060325,,,A*48
$GNRMC,212835,A,5800.300751,N,05618.409653,E,,, 060325,,,A*49
$GNRMC,212836,A,5800.300751,N,05618.409653,E,,, 060325,,,A*4a
$GNRMC,212837,A,5800.300751,N,05618.409653,E,,, 060325,,,A*4b
$GNRMC,212838,A,5800.300751,N,05618.409653,E,,, 060325,,,A*44
$GNRMC,212839,A,5800.300751,N,05618.409653,E,,, 060325,,,A*45
$GNRMC,212840,A,5800.300751,N,05618.409653,E,,, 060325,,,A*4b
$GNRMC,212841,A,5800.300751,N,05618.409653,E,,, 060325,,,A*4a
$GNRMC,212842,A,5800.300751,N,05618.409424,E,,, 060325,,,A*4b
$GNRMC,212843,A,5800.300751,N,05618.409424,E,,, 060325,,,A*4a
$GNRMC,212844,A,5800.300751,N,05618.409424,E,,, 060325,,,A*4d
$GNRMC,212845,A,5800.300751,N,05618.409424,E,,, 060325,,,A*4c
$GNRMC,212846,A,5800.300751,N,05618.409424,E,,, 060325,,,A*4f
$GNRMC,212847,A,5800.300751,N,05618.409424,E,,, 060325,,,A*4e
$GNRMC,212848,A,5800.300980,N,05618.409424,E,,, 060325,,,A*43
$GNRMC,212849,A,5800.300980,N,05618.409424,E,,, 060325,,,A*42
$GNRMC,212850,A,5800.300980,N,05618.409424,E,,, 060325,,,A*4a
$GNRMC,212851,A,5800.300980,N,05618.409424,E,,, 060325,,,A*4b
$GNRMC,212852,A,5800.300751,N,05618.409424,E,,, 060325,,,A*4a
$GNRMC,212853,A,5800.300751,N,05618.409424,E,,, 060325,,,A*4b
$GNRMC,212854,A,5800.300751,N,05618.409424,E,,, 060325,,,A*4c
$GNRMC,212855,A,5800.300751,N,05618.409424,E,,, 060325,,,A*4d
$GNRMC,212856,A,5800.300751,N,05618.409424,E,,, 060325,,,A*4e
$GNRMC,212857,A,5800.300751,N,05618.409653,E,,, 060325,,,A*4d
$GNRMC,212858,A,5800.300751,N,05618.409653,E,,, 060325,,,A*42
$GNRMC,212859,A,5800.300751,N,05618.409653,E,,, 060325,,,A*43
$GNRMC,212900,A,5800.300751,N,05618.409653,E,,, 060325,,,A*4e
$GNRMC,212901,A,5800.300751,N,05618.409653,E,,, 060325,,,A*4f
$GNRMC,212902,A,5800.300751,N,05618.410110,E,,, 060325,,,A*44
$GNRMC,212903,A,5800.300751,N,05618.410110,E,,, 060325,,,A*45
$GNRMC,212904,A,5800.300751,N,05618.410110,E,,, 060325,,,A*42
$GNRMC,212905,A,5800.300751,N,05618.410110,E,,, 060325,,,A*43
$GNRMC,212906,A,5800.300751,N,05618.410110,E,,, 060325,,,A*40
$GNRMC,212907,A,5800.300751,N,05618.410110,E,,, 060325,,,A*41
$GNRMC,212908,A,5800.300751,N,05618.409653,E,,, 060325,,,A*46
$GNRMC,212909,A,5800.300751,N,05618.409653,E,,, 060325,,,A*47
$GNRMC,212910,A,5800.300751,N,05618.409653,E,,, 060325,,,A*4f
$GNRMC,212911,A,5800.300751,N,05618.409653,E,,, 060325,,,A*4e
$GNRMC,212912,A,5800.300751,N,05618.409653,E,,, 060325,,,A*4d
$GNRMC,212913,A,5800.300751,N,05618.409653,E,,, 060325,,,A*4c
$GNRMC,212914,A,5800.300980,N,05618.409653,E,,, 060325,,,A*49
$GNRMC,212915,A,5800.300980,N,05618.409653,E,,, 060325,,,A*48
$GNRMC,212916,A,5800.300980,N,05618.409424,E,,, 060325,,,A*49
$GNRMC,212917,A,5800.300980,N,05618.409424,E,,, 060325,,,A*48
$GNRMC,212918,A,5800.300980,N,05618.409424,E,,, 060325,,,A*47
$GNRMC,212919,A,5800.300980,N,05618.409424,E,,, 060325,,,A*46
$GNRMC,212920,A,5800.301437,N,05618.409424,E,,, 060325,,,A*4c
$GNRMC,212921,A,5800.301437,N,05618.409424,E,,, 060325,,,A*4d
$GNRMC,212922,A,5800.301437,N,05618.409424,E,,, 060325,,,A*4e
$GNRMC,212923,A,5800.301437,N,05618.409424,E,,, 060325,,,A*4f
$GNRMC,212924,A,5800.301437,N,05618.409424,E,,, 060325,,,A*48
$GNRMC,212925,A,5800.301437,N,05618.409424,E,,, 060325,,,A*49
$GNRMC,212926,A,5800.301437,N,05618.409424,E,,, 060325,,,A*4a
$GNRMC,212927,A,5800.301437,N,05618.409424,E,,, 060325,,,A*4b
$GNRMC,212928,A,5800.301437,N,05618.409424,E,,, 060325,,,A*44
$GNRMC,212929,A,5800.301437,N,05618.409424,E,,, 060325,,,A*45
$GNRMC,212930,A,5800.301437,N,05618.409653,E,,, 060325,,,A*4f
$GNRMC,212931,A,5800.301437,N,05618.409653,E,,, 060325,,,A*4e
$GNRMC,212932,A,5800.301437,N,05618.409653,E,,, 060325,,,A*4d
$GNRMC,212933,A,5800.301437,N,05618.409653,E,,, 060325,,,A*4c
$GNRMC,212934,A,5800.301437,N,05618.410110,E,,, 060325,,,A*43
$GNRMC,212935,A,5800.300980,N,05618.410110,E,,, 060325,,,A*42
$GNRMC,212936,A,5800.300980,N,05618.410110,E,,, 060325,,,A*41
$GNRMC,212937,A,5800.300980,N,05618.410110,E,,, 060325,,,A*40
$GNRMC,212938,A,5800.300980,N,05618.410568,E,,, 060325,,,A*44
$GNRMC,212939,A,5800.300980,N,05618.410568,E,,, 060325,,,A*45
$GNRMC,212940,A,5800.300980,N,05618.410568,E,,, 060325,,,A*4b
$GNRMC,212941,A,5800.301437,N,05618.410568,E,,, 060325,,,A*4a
$GNRMC,212942,A,5800.301437,N,05618.410797,E,,, 060325,,,A*4b
$GNRMC,212943,A,5800.301895,N,05618.411713,E,,, 060325,,,A*43
$GNRMC,212944,A,5800.302582,N,05618.412399,E,,, 060325,,,A*49
$GNRMC,212945,A,5800.304184,N,05618.413544,E,,, 060325,,,A*4b
$GNRMC,212946,A,5800.306015,N,05618.415375,E,,, 060325,,,A*41
$GNRMC,212947,A,5800.308762,N,05618.417892,E,,, 060325,,,A*49
$GNRMC,212948,A,5800.311508,N,05618.420181,E,,, 060325,,,A*4f
$GNRMC,212949,A,5800.314484,N,05618.422699,E,,, 060325,,,A*42
$GNRMC,212950,A,5800.317230,N,05618.425446,E,,, 060325,,,A*47
$GNRMC,212951,A,5800.320206,N,05618.427734,E,,, 060325,,,A*43
$GNRMC,212952,A,5800.322495,N,05618.429794,E,,, 060325,,,A*4a
$GNRMC,212953,A,5800.324783,N,05618.432083,E,,, 060325,,,A*42
$GNRMC,212954,A,5800.326385,N,05618.434372,E,,, 060325,,,A*4e
$GNRMC,212955,A,5800.327530,N,05618.436203,E,,, 060325,,,A*43
$GNRMC,212956,A,5800.328217,N,05618.437805,E,,, 060325,,,A*40
$GNRMC,212957,A,5800.328674,N,05618.439407,E,,, 060325,,,A*40
$GNRMC,212958,A,5800.329361,N,05618.440781,E,,, 060325,,,A*4c
$GNRMC,212959,A,5800.329361,N,05618.441925,E,,, 060325,,,A*4c
$GNRMC,213000,A,5800.329819,N,05618.442841,E,,, 060325,,,A*4c
$GNRMC,213001,A,5800.329819,N,05618.443527,E,,, 060325,,,A*41
$GNRMC,213002,A,5800.329819,N,05618.444672,E,,, 060325,,,A*46
$GNRMC,213003,A,5800.329819,N,05618.446960,E,,, 060325,,,A*49
$GNRMC,213004,A,5800.329132,N,05618.451309,E,,, 060325,,,A*4d
$GNRMC,213005,A,5800.328217,N,05618.457031,E,,, 060325,,,A*47
$GNRMC,213006,A,5800.326843,N,05618.463898,E,,, 060325,,,A*4d
$GNRMC,213007,A,5800.324783,N,05618.472366,E,,, 060325,,,A*47
$GNRMC,213008,A,5800.322952,N,05618.481522,E,,, 060325,,,A*46
$GNRMC,213009,A,5800.320663,N,05618.492279,E,,, 060325,,,A*43
$GNRMC,213010,A,5800.317917,N,05618.503723,E,,, 060325,,,A*40
$GNRMC,213011,A,5800.315628,N,05618.517227,E,,, 060325,,,A*44
$GNRMC,213012,A,5800.313339,N,05618.530731,E,,, 060325,,,A*43
$GNRMC,213013,A,5800.311050,N,05618.545609,E,,, 060325,,,A*44
$GNRMC,213014,A,5800.308762,N,05618.560944,E,,, 060325,,,A*4c
$GNRMC,213015,A,5800.306702,N,05618.577423,E,,, 060325,,,A*4f
$GNRMC,213016,A,5800.304871,N,05618.594818,E,,, 060325,,,A*4c
$GNRMC,213017,A,5800.303268,N,05618.612900,E,,, 060325,,,A*4d
$GNRMC,213018,A,5800.302124,N,05618.632126,E,,, 060325,,,A*46
$GNRMC,213019,A,5800.300751,N,05618.651581,E,,, 060325,,,A*4d
$GNRMC,213020,A,5800.299606,N,05618.671722,E,,, 060325,,,A*4c
$GNRMC,213021,A,5800.298004,N,05618.692322,E,,, 060325,,,A*41
$GNRMC,213022,A,5800.296860,N,05618.713150,E,,, 060325,,,A*49
$GNRMC,213023,A,5800.295715,N,05618.733749,E,,, 060325,,,A*4a
$GNRMC,213024,A,5800.294571,N,05618.755035,E,,, 060325,,,A*40
$GNRMC,213025,A,5800.293427,N,05618.776093,E,,, 060325,,,A*49
$GNRMC,213026,A,5800.292282,N,05618.798065,E,,, 060325,,,A*4b
$GNRMC,213027,A,5800.290680,N,05618.819809,E,,, 060325,,,A*4a
$GNRMC,213028,A,5800.289536,N,05618.842010,E,,, 060325,,,A*4d
$GNRMC,213029,A,5800.288391,N,05618.864441,E,,, 060325,,,A*42
$GNRMC,213030,A,5800.287247,N,05618.887100,E,,, 060325,,,A*42
$GNRMC,213031,A,5800.286560,N,05618.909760,E,,, 060325,,,A*47
$GNRMC,213032,A,5800.285645,N,05618.932648,E,,, 060325,,,A*40
$GNRMC,213033,A,5800.284500,N,05618.955307,E,,, 060325,,,A*4d
$GNRMC,213034,A,5800.284271,N,05618.977966,E,,, 060325,,,A*46
$GNRMC,213035,A,5800.283356,N,05619.000626,E,,, 060325,,,A*47
$GNRMC,213036,A,5800.282898,N,05619.023285,E,,, 060325,,,A*40
$GNRMC,213037,A,5800.282211,N,05619.045944,E,,, 060325,,,A*4c
$GNRMC,213038,A,5800.281754,N,05619.068375,E,,, 060325,,,A*43
$GNRMC,213039,A,5800.281525,N,05619.090576,E,,, 060325,,,A*44
$GNRMC,213040,A,5800.281067,N,05619.112778,E,,, 060325,,,A*4e
$GNRMC,213041,A,5800.281067,N,05619.135208,E,,, 060325,,,A*48
$GNRMC,213042,A,5800.281067,N,05619.156952,E,,, 060325,,,A*4a
$GNRMC,213043,A,5800.281067,N,05619.178925,E,,, 060325,,,A*47
$GNRMC,213044,A,5800.281067,N,05619.200439,E,,, 060325,,,A*4c
$GNRMC,213045,A,5800.281525,N,05619.221954,E,,, 060325,,,A*4b
$GNRMC,213046,A,5800.282211,N,05619.243011,E,,, 060325,,,A*47
$GNRMC,213047,A,5800.282898,N,05619.264069,E,,, 060325,,,A*47
$GNRMC,213048,A,5800.283813,N,05619.284897,E,,, 060325,,,A*4d
$GNRMC,213049,A,5800.284958,N,05619.305496,E,,, 060325,,,A*40
$GNRMC,213050,A,5800.285645,N,05619.325638,E,,, 060325,,,A*4e
$GNRMC,213051,A,5800.286560,N,05619.345093,E,,, 060325,,,A*49
$GNRMC,213052,A,5800.286789,N,05619.364777,E,,, 060325,,,A*41
$GNRMC,213053,A,5800.287704,N,05619.383545,E,,, 060325,,,A*4e
$GNRMC,213054,A,5800.287933,N,05619.402313,E,,, 060325,,,A*48
$GNRMC,213055,A,5800.288391,N,05619.420395,E,,, 060325,,,A*4a
$GNRMC,213056,A,5800.288849,N,05619.438477,E,,, 060325,,,A*45
$GNRMC,213057,A,5800.289536,N,05619.456100,E,,, 060325,,,A*4d
$GNRMC,213058,A,5800.290222,N,05619.473495,E,,, 060325,,,A*46
$GNRMC,213059,A,5800.291138,N,05619.490204,E,,, 060325,,,A*4d
$GNRMC,213100,A,5800.291824,N,05619.506912,E,,, 060325,,,A*46
$GNRMC,213101,A,5800.292511,N,05619.522476,E,,, 060325,,,A*46
$GNRMC,213102,A,5800.293427,N,05619.538269,E,,, 060325,,,A*43
$GNRMC,213103,A,5800.294113,N,05619.554520,E,,, 060325,,,A*47
$GNRMC,213104,A,5800.294800,N,05619.570084,E,,, 060325,,,A*46
$GNRMC,213105,A,5800.295715,N,05619.586792,E,,, 060325,,,A*44
$GNRMC,213106,A,5800.296402,N,05619.602814,E,,, 060325,,,A*4f
$GNRMC,213107,A,5800.297318,N,05619.618835,E,,, 060325,,,A*4b
$GNRMC,213108,A,5800.298462,N,05619.635544,E,,, 060325,,,A*45
$GNRMC,213109,A,5800.299149,N,05619.651566,E,,, 060325,,,A*4b
$GNRMC,213110,A,5800.299835,N,05619.668045,E,,, 060325,,,A*4f
$GNRMC,213111,A,5800.300751,N,05619.684525,E,,, 060325,,,A*43
$GNRMC,213112,A,5800.301895,N,05619.701920,E,,, 060325,,,A*43
$GNRMC,213113,A,5800.302582,N,05619.719543,E,,, 060325,,,A*4a
$GNRMC,213114,A,5800.303268,N,05619.737625,E,,, 060325,,,A*40
$GNRMC,213115,A,5800.304413,N,05619.755936,E,,, 060325,,,A*45
$GNRMC,213116,A,5800.305328,N,05619.775162,E,,, 060325,,,A*43
$GNRMC,213117,A,5800.306473,N,05619.794846,E,,, 060325,,,A*48
$GNRMC,213118,A,5800.307159,N,05619.815216,E,,, 060325,,,A*42
$GNRMC,213119,A,5800.308304,N,05619.835815,E,,, 060325,,,A*4d
$GNRMC,213120,A,5800.309448,N,05619.856644,E,,, 060325,,,A*46
$GNRMC,213121,A,5800.310364,N,05619.878159,E,,, 060325,,,A*41
$GNRMC,213122,A,5800.311508,N,05619.900131,E,,, 060325,,,A*4f
$GNRMC,213123,A,5800.312653,N,05619.921646,E,,, 060325,,,A*44
$GNRMC,213124,A,5800.313797,N,05619.943390,E,,, 060325,,,A*41
$GNRMC,213125,A,5800.314484,N,05619.965363,E,,, 060325,,,A*4e
$GNRMC,213126,A,5800.315628,N,05619.987106,E,,, 060325,,,A*45
$GNRMC,213127,A,5800.316315,N,05620.008621,E,,, 060325,,,A*4a
$GNRMC,213128,A,5800.317459,N,05620.030136,E,,, 060325,,,A*41
$GNRMC,213129,A,5800.318375,N,05620.051651,E,,, 060325,,,A*47
$GNRMC,213130,A,5800.319519,N,05620.072937,E,,, 060325,,,A*4c
$GNRMC,213131,A,5800.320206,N,05620.093536,E,,, 060325,,,A*4c
$GNRMC,213132,A,5800.321350,N,05620.112305,E,,, 060325,,,A*42
$GNRMC,213133,A,5800.322266,N,05620.129242,E,,, 060325,,,A*4e
$GNRMC,213134,A,5800.322952,N,05620.145493,E,,, 060325,,,A*45
$GNRMC,213135,A,5800.323639,N,05620.161514,E,,, 060325,,,A*4f
$GNRMC,213136,A,5800.324783,N,05620.177994,E,,, 060325,,,A*48
$GNRMC,213137,A,5800.325928,N,05620.195389,E,,, 060325,,,A*4d
$GNRMC,213138,A,5800.326843,N,05620.213013,E,,, 060325,,,A*40
$GNRMC,213139,A,5800.327530,N,05620.231781,E,,, 060325,,,A*45
$GNRMC,213140,A,5800.328674,N,05620.251007,E,,, 060325,,,A*48
$GNRMC,213141,A,5800.329361,N,05620.270691,E,,, 060325,,,A*43
$GNRMC,213142,A,5800.330734,N,05620.290146,E,,, 060325,,,A*4f
$GNRMC,213143,A,5800.331879,N,05620.309830,E,,, 060325,,,A*40
$GNRMC,213144,A,5800.333023,N,05620.329285,E,,, 060325,,,A*44
$GNRMC,213145,A,5800.334167,N,05620.348969,E,,, 060325,,,A*4d
$GNRMC,213146,A,5800.335312,N,05620.368423,E,,, 060325,,,A*4e
$GNRMC,213147,A,5800.336456,N,05620.387650,E,,, 060325,,,A*4c
$GNRMC,213148,A,5800.337830,N,05620.406418,E,,, 060325,,,A*4e
$GNRMC,213149,A,5800.338974,N,05620.425415,E,,, 060325,,,A*4d
$GNRMC,213150,A,5800.340576,N,05620.444183,E,,, 060325,,,A*49
$GNRMC,213151,A,5800.342178,N,05620.462494,E,,, 060325,,,A*47
$GNRMC,213152,A,5800.343781,N,05620.481491,E,,, 060325,,,A*4d
$GNRMC,213153,A,5800.345154,N,05620.500946,E,,, 060325,,,A*4b
$GNRMC,213154,A,5800.346756,N,05620.520172,E,,, 060325,,,A*46
$GNRMC,213155,A,5800.348358,N,05620.539398,E,,, 060325,,,A*4d
$GNRMC,213156,A,5800.349731,N,05620.558167,E,,, 060325,,,A*41
$GNRMC,213157,A,5800.351334,N,05620.576248,E,,, 060325,,,A*4a
$GNRMC,213158,A,5800.352936,N,05620.593872,E,,, 060325,,,A*46
$GNRMC,213159,A,5800.354538,N,05620.611267,E,,, 060325,,,A*44
$GNRMC,213200,A,5800.355682,N,05620.628204,E,,, 060325,,,A*47
$GNRMC,213201,A,5800.357056,N,05620.644913,E,,, 060325,,,A*4c
$GNRMC,213202,A,5800.358658,N,05620.661392,E,,, 060325,,,A*4c
$GNRMC,213203,A,5800.359802,N,05620.678101,E,,, 060325,,,A*4d
$GNRMC,213204,A,5800.361404,N,05620.693665,E,,, 060325,,,A*4b
$GNRMC,213205,A,5800.362549,N,05620.708771,E,,, 060325,,,A*46
$GNRMC,213206,A,5800.363235,N,05620.723648,E,,, 060325,,,A*4a
$GNRMC,213207,A,5800.363235,N,05620.737610,E,,, 060325,,,A*43
$GNRMC,213208,A,5800.362778,N,05620.750885,E,,, 060325,,,A*42
$GNRMC,213209,A,5800.361633,N,05620.762787,E,,, 060325,,,A*42
$GNRMC,213210,A,5800.360489,N,05620.773544,E,,, 060325,,,A*45
$GNRMC,213211,A,5800.360947,N,05620.782928,E,,, 060325,,,A*43
$GNRMC,213212,A,5800.362091,N,05620.789795,E,,, 060325,,,A*43
$GNRMC,213213,A,5800.362778,N,05620.793915,E,,, 060325,,,A*4f
$GNRMC,213214,A,5800.363693,N,05620.795975,E,,, 060325,,,A*4d
$GNRMC,213215,A,5800.364380,N,05620.798264,E,,, 060325,,,A*4a
$GNRMC,213216,A,5800.365524,N,05620.801697,E,,, 060325,,,A*47
$GNRMC,213217,A,5800.367126,N,05620.807419,E,,, 060325,,,A*40
$GNRMC,213218,A,5800.368958,N,05620.814743,E,,, 060325,,,A*4f
$GNRMC,213219,A,5800.371017,N,05620.823441,E,,, 060325,,,A*41
$GNRMC,213220,A,5800.372391,N,05620.833969,E,,, 060325,,,A*43
$GNRMC,213221,A,5800.373993,N,05620.846100,E,,, 060325,,,A*4e
$GNRMC,213222,A,5800.375137,N,05620.859604,E,,, 060325,,,A*40
$GNRMC,213223,A,5800.376282,N,05620.874252,E,,, 060325,,,A*47
$GNRMC,213224,A,5800.377426,N,05620.889587,E,,, 060325,,,A*44
$GNRMC,213225,A,5800.378571,N,05620.906067,E,,, 060325,,,A*44
$GNRMC,213226,A,5800.379715,N,05620.923691,E,,, 060325,,,A*4e
$GNRMC,213227,A,5800.380859,N,05620.942230,E,,, 060325,,,A*46
$GNRMC,213228,A,5800.382004,N,05620.961685,E,,, 060325,,,A*40
$GNRMC,213229,A,5800.383148,N,05620.982513,E,,, 060325,,,A*48
$GNRMC,213230,A,5800.384293,N,05621.003571,E,,, 060325,,,A*47
$GNRMC,213231,A,5800.385208,N,05621.026230,E,,, 060325,,,A*40
$GNRMC,213232,A,5800.385895,N,05621.049347,E,,, 060325,,,A*45
$GNRMC,213233,A,5800.386581,N,05621.073151,E,,, 060325,,,A*43
$GNRMC,213234,A,5800.387039,N,05621.097641,E,,, 060325,,,A*4f
$GNRMC,213235,A,5800.387497,N,05621.122589,E,,, 060325,,,A*46
$GNRMC,213236,A,5800.387726,N,05621.148453,E,,, 060325,,,A*46
$GNRMC,213237,A,5800.387726,N,05621.174545,E,,, 060325,,,A*4e
$GNRMC,213238,A,5800.387726,N,05621.200638,E,,, 060325,,,A*48
$GNRMC,213239,A,5800.387497,N,05621.227188,E,,, 060325,,,A*49
$GNRMC,213240,A,5800.386581,N,05621.253967,E,,, 060325,,,A*4a
$GNRMC,213241,A,5800.385895,N,05621.280975,E,,, 060325,,,A*4d
$GNRMC,213242,A,5800.385208,N,05621.308212,E,,, 060325,,,A*4b
$GNRMC,213243,A,5800.384064,N,05621.335907,E,,, 060325,,,A*42
$GNRMC,213244,A,5800.382462,N,05621.363144,E,,, 060325,,,A*4d
$GNRMC,213245,A,5800.380859,N,05621.391068,E,,, 060325,,,A*48
$GNRMC,213246,A,5800.379028,N,05621.419220,E,,, 060325,,,A*4a
$GNRMC,213247,A,5800.377197,N,05621.447144,E,,, 060325,,,A*4a
$GNRMC,213248,A,5800.374680,N,05621.475525,E,,, 060325,,,A*45
$GNRMC,213249,A,5800.372391,N,05621.503906,E,,, 060325,,,A*4a
$GNRMC,213250,A,5800.369873,N,05621.532516,E,,, 060325,,,A*40
$GNRMC,213251,A,5800.366669,N,05621.560898,E,,, 060325,,,A*47
$GNRMC,213252,A,5800.363693,N,05621.589279,E,,, 060325,,,A*46
$GNRMC,213253,A,5800.360260,N,05621.617661,E,,, 060325,,,A*45
$GNRMC,213254,A,5800.356369,N,05621.646042,E,,, 060325,,,A*4c
$GNRMC,213255,A,5800.352478,N,05621.674423,E,,, 060325,,,A*4c
$GNRMC,213256,A,5800.348587,N,05621.702805,E,,, 060325,,,A*4d
$GNRMC,213257,A,5800.344467,N,05621.731644,E,,, 060325,,,A*44
$GNRMC,213258,A,5800.340118,N,05621.760025,E,,, 060325,,,A*47
$GNRMC,213259,A,5800.335312,N,05621.788635,E,,, 060325,,,A*4d
$GNRMC,213300,A,5800.330276,N,05621.817017,E,,, 060325,,,A*49
$GNRMC,213301,A,5800.324783,N,05621.845398,E,,, 060325,,,A*41
$GNRMC,213302,A,5800.319519,N,05621.873322,E,,, 060325,,,A*49
$GNRMC,213303,A,5800.313797,N,05621.901932,E,,, 060325,,,A*49
$GNRMC,213304,A,5800.307617,N,05621.929855,E,,, 060325,,,A*48
$GNRMC,213305,A,5800.301437,N,05621.957550,E,,, 060325,,,A*4e
$GNRMC,213306,A,5800.295258,N,05621.985474,E,,, 060325,,,A*46
$GNRMC,213307,A,5800.288391,N,05622.012711,E,,, 060325,,,A*4b
$GNRMC,213308,A,5800.281754,N,05622.040176,E,,, 060325,,,A*40
$GNRMC,213309,A,5800.274658,N,05622.066956,E,,, 060325,,,A*48
$GNRMC,213310,A,5800.267334,N,05622.093735,E,,, 060325,,,A*4c
$GNRMC,213311,A,5800.260010,N,05622.120285,E,,, 060325,,,A*48
$GNRMC,213312,A,5800.252228,N,05622.146378,E,,, 060325,,,A*40
$GNRMC,213313,A,5800.244675,N,05622.172470,E,,, 060325,,,A*42
$GNRMC,213314,A,5800.236435,N,05622.198563,E,,, 060325,,,A*41
$GNRMC,213315,A,5800.228195,N,05622.224426,E,,, 060325,,,A*44
$GNRMC,213316,A,5800.219727,N,05622.249374,E,,, 060325,,,A*41
$GNRMC,213317,A,5800.211258,N,05622.274323,E,,, 060325,,,A*49
$GNRMC,213318,A,5800.202789,N,05622.298813,E,,, 060325,,,A*47
$GNRMC,213319,A,5800.193863,N,05622.323074,E,,, 060325,,,A*4e
$GNRMC,213320,A,5800.185165,N,05622.346878,E,,, 060325,,,A*4b
$GNRMC,213321,A,5800.175781,N,05622.369995,E,,, 060325,,,A*46
$GNRMC,213322,A,5800.167084,N,05622.392883,E,,, 060325,,,A*46
$GNRMC,213323,A,5800.158157,N,05622.415543,E,,, 060325,,,A*4d
$GNRMC,213324,A,5800.149460,N,05622.437973,E,,, 060325,,,A*44
$GNRMC,213325,A,5800.140533,N,05622.460175,E,,, 060325,,,A*47
$GNRMC,213326,A,5800.131607,N,05622.482376,E,,, 060325,,,A*4b
$GNRMC,213327,A,5800.122910,N,05622.504349,E,,, 060325,,,A*42
$GNRMC,213328,A,5800.114441,N,05622.526321,E,,, 060325,,,A*4f
$GNRMC,213329,A,5800.105515,N,05622.547607,E,,, 060325,,,A*48
$GNRMC,213330,A,5800.097046,N,05622.569122,E,,, 060325,,,A*45
$GNRMC,213331,A,5800.088806,N,05622.590637,E,,, 060325,,,A*43
$GNRMC,213332,A,5800.080566,N,05622.611923,E,,, 060325,,,A*43
$GNRMC,213333,A,5800.072556,N,05622.632523,E,,, 060325,,,A*41
$GNRMC,213334,A,5800.064087,N,05622.652893,E,,, 060325,,,A*48
$GNRMC,213335,A,5800.056534,N,05622.673264,E,,, 060325,,,A*44
$GNRMC,213336,A,5800.048294,N,05622.693634,E,,, 060325,,,A*4a
$GNRMC,213337,A,5800.040741,N,05622.713318,E,,, 060325,,,A*4c
$GNRMC,213338,A,5800.032959,N,05622.732773,E,,, 060325,,,A*4b
$GNRMC,213339,A,5800.025635,N,05622.751541,E,,, 060325,,,A*4f
$GNRMC,213340,A,5800.018768,N,05622.769623,E,,, 060325,,,A*4a
$GNRMC,213341,A,5800.011444,N,05622.788162,E,,, 060325,,,A*42
$GNRMC,213342,A,5800.004120,N,05622.807388,E,,, 060325,,,A*4c
$GNRMC,213343,A,5759.996567,N,05622.825699,E,,, 060325,,,A*4e
$GNRMC,213344,A,5759.989243,N,05622.844467,E,,, 060325,,,A*42
$GNRMC,213345,A,5759.982376,N,05622.863464,E,,, 060325,,,A*49
$GNRMC,213346,A,5759.975052,N,05622.882462,E,,, 060325,,,A*4e
$GNRMC,213347,A,5759.968185,N,05622.902145,E,,, 060325,,,A*41
$GNRMC,213348,A,5759.961548,N,05622.921829,E,,, 060325,,,A*40
$GNRMC,213349,A,5759.955368,N,05622.941284,E,,, 060325,,,A*49
$GNRMC,213350,A,5759.949646,N,05622.961197,E,,, 060325,,,A*46
$GNRMC,213351,A,5759.944382,N,05622.981339,E,,, 060325,,,A*4f
$GNRMC,213352,A,5759.938889,N,05623.001709,E,,, 060325,,,A*40
$GNRMC,213353,A,5759.934311,N,05623.021851,E,,, 060325,,,A*47
$GNRMC,213354,A,5759.930191,N,05623.042221,E,,, 060325,,,A*46
$GNRMC,213355,A,5759.926300,N,05623.063049,E,,, 060325,,,A*45
$GNRMC,213356,A,5759.921951,N,05623.084106,E,,, 060325,,,A*4c
$GNRMC,213357,A,5759.918289,N,05623.104935,E,,, 060325,,,A*48
$GNRMC,213358,A,5759.914398,N,05623.125992,E,,, 060325,,,A*44
$GNRMC,213359,A,5759.910965,N,05623.147049,E,,, 060325,,,A*42
$GNRMC,213400,A,5759.907761,N,05623.167877,E,,, 060325,,,A*42
$GNRMC,213401,A,5759.904785,N,05623.188248,E,,, 060325,,,A*4d
$GNRMC,213402,A,5759.902496,N,05623.207703,E,,, 060325,,,A*47
$GNRMC,213403,A,5759.900894,N,05623.226700,E,,, 060325,,,A*4a
$GNRMC,213404,A,5759.900208,N,05623.244781,E,,, 060325,,,A*4f
$GNRMC,213405,A,5759.900894,N,05623.262405,E,,, 060325,,,A*4a
$GNRMC,213406,A,5759.902496,N,05623.279572,E,,, 060325,,,A*4e
$GNRMC,213407,A,5759.905243,N,05623.296509,E,,, 060325,,,A*4b
$GNRMC,213408,A,5759.908676,N,05623.312531,E,,, 060325,,,A*4d
$GNRMC,213409,A,5759.913254,N,05623.328094,E,,, 060325,,,A*41
$GNRMC,213410,A,5759.918518,N,05623.342514,E,,, 060325,,,A*4c
$GNRMC,213411,A,5759.924698,N,05623.356018,E,,, 060325,,,A*45
$GNRMC,213412,A,5759.932022,N,05623.368378,E,,, 060325,,,A*4e
$GNRMC,213413,A,5759.940033,N,05623.379364,E,,, 060325,,,A*47
$GNRMC,213414,A,5759.948273,N,05623.390121,E,,, 060325,,,A*4a
$GNRMC,213415,A,5759.956970,N,05623.400650,E,,, 060325,,,A*43
$GNRMC,213416,A,5759.965897,N,05623.410492,E,,, 060325,,,A*45
$GNRMC,213417,A,5759.974594,N,05623.421021,E,,, 060325,,,A*44
$GNRMC,213418,A,5759.983521,N,05623.431320,E,,, 060325,,,A*4e
$GNRMC,213419,A,5759.992218,N,05623.441620,E,,, 060325,,,A*40
$GNRMC,213420,A,5800.001144,N,05623.451233,E,,, 060325,,,A*47
$GNRMC,213421,A,5800.009613,N,05623.460159,E,,, 060325,,,A*46
$GNRMC,213422,A,5800.018539,N,05623.468170,E,,, 060325,,,A*4d
$GNRMC,213423,A,5800.026550,N,05623.475494,E,,, 060325,,,A*4d
$GNRMC,213424,A,5800.035706,N,05623.481903,E,,, 060325,,,A*41
$GNRMC,213425,A,5800.044861,N,05623.486481,E,,, 060325,,,A*48
$GNRMC,213426,A,5800.054932,N,05623.490143,E,,, 060325,,,A*41
$GNRMC,213427,A,5800.065002,N,05623.492432,E,,, 060325,,,A*49
$GNRMC,213428,A,5800.074387,N,05623.492661,E,,, 060325,,,A*4c
$GNRMC,213429,A,5800.084457,N,05623.491974,E,,, 060325,,,A*40
$GNRMC,213430,A,5800.094757,N,05623.489685,E,,, 060325,,,A*42
$GNRMC,213431,A,5800.104828,N,05623.486481,E,,, 060325,,,A*45
$GNRMC,213432,A,5800.114899,N,05623.483963,E,,, 060325,,,A*49
$GNRMC,213433,A,5800.125656,N,05623.481216,E,,, 060325,,,A*4c
$GNRMC,213434,A,5800.135498,N,05623.480072,E,,, 060325,,,A*4b
$GNRMC,213435,A,5800.145111,N,05623.480072,E,,, 060325,,,A*49
$GNRMC,213436,A,5800.155182,N,05623.481903,E,,, 060325,,,A*4f
$GNRMC,213437,A,5800.164337,N,05623.485336,E,,, 060325,,,A*48
$GNRMC,213438,A,5800.173950,N,05623.490829,E,,, 060325,,,A*4b
$GNRMC,213439,A,5800.183105,N,05623.497696,E,,, 060325,,,A*40
$GNRMC,213440,A,5800.192719,N,05623.505707,E,,, 060325,,,A*46
$GNRMC,213441,A,5800.202332,N,05623.515320,E,,, 060325,,,A*40
$GNRMC,213442,A,5800.211945,N,05623.525391,E,,, 060325,,,A*42
$GNRMC,213443,A,5800.222702,N,05623.535004,E,,, 060325,,,A*40
$GNRMC,213444,A,5800.233459,N,05623.545761,E,,, 060325,,,A*49
$GNRMC,213445,A,5800.244217,N,05623.557663,E,,, 060325,,,A*44
$GNRMC,213446,A,5800.255432,N,05623.569107,E,,, 060325,,,A*4e
$GNRMC,213447,A,5800.266876,N,05623.581467,E,,, 060325,,,A*46
$GNRMC,213448,A,5800.278091,N,05623.594055,E,,, 060325,,,A*46
$GNRMC,213449,A,5800.289993,N,05623.606873,E,,, 060325,,,A*46
$GNRMC,213450,A,5800.301437,N,05623.620148,E,,, 060325,,,A*49
$GNRMC,213451,A,5800.312881,N,05623.634338,E,,, 060325,,,A*4b
$GNRMC,213452,A,5800.325241,N,05623.648300,E,,, 060325,,,A*4a
$GNRMC,213453,A,5800.337601,N,05623.662949,E,,, 060325,,,A*47
$GNRMC,213454,A,5800.349731,N,05623.677139,E,,, 060325,,,A*40
$GNRMC,213455,A,5800.362091,N,05623.691559,E,,, 060325,,,A*4f
$GNRMC,213456,A,5800.374680,N,05623.706665,E,,, 060325,,,A*4e
$GNRMC,213457,A,5800.387497,N,05623.721542,E,,, 060325,,,A*44
$GNRMC,213458,A,5800.400085,N,05623.736877,E,,, 060325,,,A*49
$GNRMC,213459,A,5800.413132,N,05623.752213,E,,, 060325,,,A*4d
$GNRMC,213500,A,5800.425949,N,05623.767776,E,,, 060325,,,A*41
$GNRMC,213501,A,5800.438995,N,05623.783112,E,,, 060325,,,A*43
$GNRMC,213502,A,5800.452042,N,05623.798676,E,,, 060325,,,A*40
$GNRMC,213503,A,5800.465317,N,05623.814468,E,,, 060325,,,A*40
$GNRMC,213504,A,5800.478821,N,05623.830261,E,,, 060325,,,A*4c
$GNRMC,213505,A,5800.492783,N,05623.846054,E,,, 060325,,,A*4b
$GNRMC,213506,A,5800.506516,N,05623.862076,E,,, 060325,,,A*4c
$GNRMC,213507,A,5800.520248,N,05623.878326,E,,, 060325,,,A*48
$GNRMC,213508,A,5800.534210,N,05623.894806,E,,, 060325,,,A*44
$GNRMC,213509,A,5800.548401,N,05623.911285,E,,, 060325,,,A*45
$GNRMC,213510,A,5800.562134,N,05623.928223,E,,, 060325,,,A*40
$GNRMC,213511,A,5800.576324,N,05623.944702,E,,, 060325,,,A*4b
$GNRMC,213512,A,5800.590515,N,05623.961639,E,,, 060325,,,A*4a
$GNRMC,213513,A,5800.604706,N,05623.978577,E,,, 060325,,,A*44
$GNRMC,213514,A,5800.618896,N,05623.995285,E,,, 060325,,,A*41
$GNRMC,213515,A,5800.633316,N,05624.011993,E,,, 060325,,,A*44
$GNRMC,213516,A,5800.647049,N,05624.028702,E,,, 060325,,,A*41
$GNRMC,213517,A,5800.661240,N,05624.046097,E,,, 060325,,,A*4c
$GNRMC,213518,A,5800.674973,N,05624.064178,E,,, 060325,,,A*4c
$GNRMC,213519,A,5800.688477,N,05624.082947,E,,, 060325,,,A*4b
$GNRMC,213520,A,5800.701981,N,05624.102631,E,,, 060325,,,A*42
$GNRMC,213521,A,5800.715485,N,05624.122543,E,,, 060325,,,A*4b
$GNRMC,213522,A,5800.728760,N,05624.142914,E,,, 060325,,,A*46
$GNRMC,213523,A,5800.741806,N,05624.163284,E,,, 060325,,,A*46
$GNRMC,213524,A,5800.754852,N,05624.184799,E,,, 060325,,,A*44
$GNRMC,213525,A,5800.767670,N,05624.206314,E,,, 060325,,,A*43
$GNRMC,213526,A,5800.779800,N,05624.228973,E,,, 060325,,,A*41
$GNRMC,213527,A,5800.791702,N,05624.251633,E,,, 060325,,,A*4e
$GNRMC,213528,A,5800.803604,N,05624.274979,E,,, 060325,,,A*44
$GNRMC,213529,A,5800.815277,N,05624.298325,E,,, 060325,,,A*43
$GNRMC,213530,A,5800.826721,N,05624.322128,E,,, 060325,,,A*42
$GNRMC,213531,A,5800.837936,N,05624.345932,E,,, 060325,,,A*49
$GNRMC,213532,A,5800.848694,N,05624.370651,E,,, 060325,,,A*49
$GNRMC,213533,A,5800.858994,N,05624.395828,E,,, 060325,,,A*4d
$GNRMC,213534,A,5800.869293,N,05624.421234,E,,, 060325,,,A*4b
$GNRMC,213535,A,5800.879822,N,05624.447327,E,,, 060325,,,A*48
$GNRMC,213536,A,5800.890121,N,05624.473877,E,,, 060325,,,A*4f
$GNRMC,213537,A,5800.900421,N,05624.500427,E,,, 060325,,,A*4f
$GNRMC,213538,A,5800.911179,N,05624.526749,E,,, 060325,,,A*47
$GNRMC,213539,A,5800.921936,N,05624.553299,E,,, 060325,,,A*4c
$GNRMC,213540,A,5800.932693,N,05624.579849,E,,, 060325,,,A*4f
$GNRMC,213541,A,5800.944366,N,05624.606400,E,,, 060325,,,A*4a
$GNRMC,213542,A,5800.955811,N,05624.632721,E,,, 060325,,,A*45
$GNRMC,213543,A,5800.967712,N,05624.659042,E,,, 060325,,,A*46
$GNRMC,213544,A,5800.979614,N,05624.684677,E,,, 060325,,,A*49
$GNRMC,213545,A,5800.992203,N,05624.710083,E,,, 060325,,,A*4e
$GNRMC,213546,A,5801.005249,N,05624.735031,E,,, 060325,,,A*4b
$GNRMC,213547,A,5801.018295,N,05624.759521,E,,, 060325,,,A*49
$GNRMC,213548,A,5801.031799,N,05624.783783,E,,, 060325,,,A*49
$GNRMC,213549,A,5801.045532,N,05624.807587,E,,, 060325,,,A*4d
$GNRMC,213550,A,5801.059952,N,05624.830704,E,,, 060325,,,A*4f
$GNRMC,213551,A,5801.074142,N,05624.853134,E,,, 060325,,,A*48
$GNRMC,213552,A,5801.088562,N,05624.875565,E,,, 060325,,,A*4a
$GNRMC,213553,A,5801.103210,N,05624.898224,E,,, 060325,,,A*4a
$GNRMC,213554,A,5801.117401,N,05624.920883,E,,, 060325,,,A*4b
$GNRMC,213555,A,5801.132507,N,05624.943085,E,,, 060325,,,A*41
$GNRMC,213556,A,5801.146927,N,05624.965744,E,,, 060325,,,A*41
$GNRMC,213557,A,5801.161575,N,05624.987717,E,,, 060325,,,A*44
$GNRMC,213558,A,5801.175766,N,05625.009232,E,,, 060325,,,A*42
$GNRMC,213559,A,5801.189957,N,05625.030746,E,,, 060325,,,A*40
$GNRMC,213600,A,5801.203918,N,05625.051804,E,,, 060325,,,A*4b
