$GNRMC,102853,A,5800.125656,N,05617.560272,E,,, 260325,,,A*4c
$GNRMC,102854,A,5800.132751,N,05617.582245,E,,, 260325,,,A*43
$GNRMC,102855,A,5800.133209,N,05617.582703,E,,, 260325,,,A*4c
$GNRMC,102856,A,5800.133209,N,05617.582245,E,,, 260325,,,A*48
$GNRMC,102856,A,5800.134354,N,05617.582932,E,,, 260325,,,A*4d
$GNRMC,102857,A,5800.135269,N,05617.583847,E,,, 260325,,,A*40
$GNRMC,102858,A,5800.135498,N,05617.584534,E,,, 260325,,,A*49
$GNRMC,102859,A,5800.135956,N,05617.584991,E,,, 260325,,,A*44
$GNRMC,102900,A,5800.136414,N,05617.584991,E,,, 260325,,,A*41
$GNRMC,102901,A,5800.136642,N,05617.585220,E,,, 260325,,,A*41
$GNRMC,102902,A,5800.137100,N,05617.585678,E,,, 260325,,,A*4b
$GNRMC,102903,A,5800.137100,N,05617.585678,E,,, 260325,,,A*4a
$GNRMC,102904,A,5800.137558,N,05617.585678,E,,, 260325,,,A*44
$GNRMC,102905,A,5800.137558,N,05617.585678,E,,, 260325,,,A*45
$GNRMC,102906,A,5800.137787,N,05617.585678,E,,, 260325,,,A*46
$GNRMC,102907,A,5800.138245,N,05617.585678,E,,, 260325,,,A*43
$GNRMC,102908,A,5800.138245,N,05617.585678,E,,, 260325,,,A*4c
$GNRMC,102909,A,5800.138702,N,05617.585678,E,,, 260325,,,A*4b
$GNRMC,102910,A,5800.138702,N,05617.585678,E,,, 260325,,,A*43
$GNRMC,102911,A,5800.138702,N,05617.585678,E,,, 260325,,,A*42
$GNRMC,102912,A,5800.138931,N,05617.585678,E,,, 260325,,,A*4f
$GNRMC,102913,A,5800.138931,N,05617.585678,E,,, 260325,,,A*4e
$GNRMC,102914,A,5800.139389,N,05617.585678,E,,, 260325,,,A*41
$GNRMC,102915,A,5800.139389,N,05617.585678,E,,, 260325,,,A*40
$GNRMC,102916,A,5800.139847,N,05617.585678,E,,, 260325,,,A*4a
$GNRMC,102917,A,5800.139847,N,05617.585678,E,,, 260325,,,A*4b
$GNRMC,102918,A,5800.139847,N,05617.585678,E,,, 260325,,,A*44
$GNRMC,102919,A,5800.140076,N,05617.585678,E,,, 260325,,,A*41
$GNRMC,102920,A,5800.140076,N,05617.585678,E,,, 260325,,,A*4b
$GNRMC,102921,A,5800.140076,N,05617.585678,E,,, 260325,,,A*4a
$GNRMC,102922,A,5800.140076,N,05617.585220,E,,, 260325,,,A*40
$GNRMC,102923,A,5800.140533,N,05617.585220,E,,, 260325,,,A*45
$GNRMC,102924,A,5800.140533,N,05617.585220,E,,, 260325,,,A*42
$GNRMC,102925,A,5800.140533,N,05617.585220,E,,, 260325,,,A*43
$GNRMC,102926,A,5800.140533,N,05617.585220,E,,, 260325,,,A*40
$GNRMC,102927,A,5800.140533,N,05617.585678,E,,, 260325,,,A*48
$GNRMC,102928,A,5800.140076,N,05617.585678,E,,, 260325,,,A*43
$GNRMC,102929,A,5800.140076,N,05617.585678,E,,, 260325,,,A*42
$GNRMC,102930,A,5800.140076,N,05617.585678,E,,, 260325,,,A*4a
$GNRMC,102931,A,5800.140076,N,05617.585678,E,,, 260325,,,A*4b
$GNRMC,102932,A,5800.140076,N,05617.585220,E,,, 260325,,,A*41
$GNRMC,102933,A,5800.140076,N,05617.585220,E,,, 260325,,,A*40
$GNRMC,102934,A,5800.140076,N,05617.585220,E,,, 260325,,,A*47
$GNRMC,102935,A,5800.140076,N,05617.585220,E,,, 260325,,,A*46
$GNRMC,102936,A,5800.140076,N,05617.585220,E,,, 260325,,,A*45
$GNRMC,102937,A,5800.140076,N,05617.585220,E,,, 260325,,,A*44
$GNRMC,102938,A,5800.139847,N,05617.584991,E,,, 260325,,,A*4f
$GNRMC,102939,A,5800.139847,N,05617.584991,E,,, 260325,,,A*4e
$GNRMC,102940,A,5800.139847,N,05617.584991,E,,, 260325,,,A*40
$GNRMC,102941,A,5800.139847,N,05617.584991,E,,, 260325,,,A*41
$GNRMC,102942,A,5800.139847,N,05617.584991,E,,, 260325,,,A*42
$GNRMC,102943,A,5800.139847,N,05617.584991,E,,, 260325,,,A*43
$GNRMC,102944,A,5800.139847,N,05617.584991,E,,, 260325,,,A*44
$GNRMC,102945,A,5800.139847,N,05617.584991,E,,, 260325,,,A*45
$GNRMC,102946,A,5800.139847,N,05617.584991,E,,, 260325,,,A*46
$GNRMC,102947,A,5800.139847,N,05617.584991,E,,, 260325,,,A*47
$GNRMC,102948,A,5800.139847,N,05617.584991,E,,, 260325,,,A*48
$GNRMC,102949,A,5800.139847,N,05617.584991,E,,, 260325,,,A*49
$GNRMC,102950,A,5800.139389,N,05617.584534,E,,, 260325,,,A*4b
$GNRMC,102951,A,5800.139389,N,05617.584991,E,,, 260325,,,A*49
$GNRMC,102952,A,5800.139389,N,05617.584991,E,,, 260325,,,A*4a
$GNRMC,102953,A,5800.139389,N,05617.584534,E,,, 260325,,,A*48
$GNRMC,102954,A,5800.139389,N,05617.584076,E,,, 260325,,,A*4c
$GNRMC,102955,A,5800.139389,N,05617.583847,E,,, 260325,,,A*40
$GNRMC,102956,A,5800.139389,N,05617.582703,E,,, 260325,,,A*4d
$GNRMC,102957,A,5800.139389,N,05617.581100,E,,, 260325,,,A*4a
$GNRMC,102958,A,5800.139389,N,05617.579498,E,,, 260325,,,A*46
$GNRMC,102959,A,5800.138931,N,05617.577667,E,,, 260325,,,A*43
$GNRMC,103000,A,5800.138702,N,05617.576065,E,,, 260325,,,A*4c
$GNRMC,103001,A,5800.138245,N,05617.575607,E,,, 260325,,,A*4a
$GNRMC,103002,A,5800.138245,N,05617.576065,E,,, 260325,,,A*48
$GNRMC,103003,A,5800.138702,N,05617.576523,E,,, 260325,,,A*48
$GNRMC,103004,A,5800.138702,N,05617.576752,E,,, 260325,,,A*4b
$GNRMC,103005,A,5800.138931,N,05617.577209,E,,, 260325,,,A*4e
$GNRMC,103006,A,5800.138931,N,05617.577209,E,,, 260325,,,A*4d
$GNRMC,103007,A,5800.138931,N,05617.577209,E,,, 260325,,,A*4c
$GNRMC,103008,A,5800.138702,N,05617.577209,E,,, 260325,,,A*4d
$GNRMC,103009,A,5800.138702,N,05617.577209,E,,, 260325,,,A*4c
$GNRMC,103010,A,5800.138702,N,05617.576752,E,,, 260325,,,A*4e
$GNRMC,103011,A,5800.138702,N,05617.576752,E,,, 260325,,,A*4f
$GNRMC,103012,A,5800.138245,N,05617.576523,E,,, 260325,,,A*4e
$GNRMC,103013,A,5800.137787,N,05617.576523,E,,, 260325,,,A*4b
$GNRMC,103014,A,5800.137100,N,05617.575607,E,,, 260325,,,A*43
$GNRMC,103015,A,5800.135956,N,05617.575378,E,,, 260325,,,A*46
$GNRMC,103016,A,5800.134811,N,05617.576065,E,,, 260325,,,A*4a
$GNRMC,103017,A,5800.134125,N,05617.577209,E,,, 260325,,,A*4c
$GNRMC,103018,A,5800.133209,N,05617.578812,E,,, 260325,,,A*46
$GNRMC,103019,A,5800.132751,N,05617.579956,E,,, 260325,,,A*4e
$GNRMC,103020,A,5800.132751,N,05617.581100,E,,, 260325,,,A*48
$GNRMC,103021,A,5800.133209,N,05617.582245,E,,, 260325,,,A*41
$GNRMC,103022,A,5800.133209,N,05617.584076,E,,, 260325,,,A*46
$GNRMC,103023,A,5800.133209,N,05617.586823,E,,, 260325,,,A*4d
$GNRMC,103024,A,5800.133667,N,05617.590256,E,,, 260325,,,A*49
$GNRMC,103025,A,5800.133667,N,05617.594604,E,,, 260325,,,A*4f
$GNRMC,103026,A,5800.134125,N,05617.599182,E,,, 260325,,,A*4e
$GNRMC,103027,A,5800.134125,N,05617.603989,E,,, 260325,,,A*4c
$GNRMC,103028,A,5800.134354,N,05617.608795,E,,, 260325,,,A*4f
$GNRMC,103029,A,5800.134811,N,05617.613373,E,,, 260325,,,A*42
$GNRMC,103030,A,5800.134811,N,05617.617950,E,,, 260325,,,A*45
$GNRMC,103031,A,5800.135269,N,05617.622528,E,,, 260325,,,A*45
$GNRMC,103032,A,5800.135498,N,05617.626648,E,,, 260325,,,A*4f
$GNRMC,103033,A,5800.136414,N,05617.631454,E,,, 260325,,,A*40
$GNRMC,103034,A,5800.136642,N,05617.636032,E,,, 260325,,,A*45
$GNRMC,103035,A,5800.137787,N,05617.640152,E,,, 260325,,,A*4b
$GNRMC,103036,A,5800.138245,N,05617.644730,E,,, 260325,,,A*4a
$GNRMC,103037,A,5800.138245,N,05617.649765,E,,, 260325,,,A*46
$GNRMC,103038,A,5800.138245,N,05617.654343,E,,, 260325,,,A*45
$GNRMC,103039,A,5800.137787,N,05617.658920,E,,, 260325,,,A*43
$GNRMC,103040,A,5800.137100,N,05617.662354,E,,, 260325,,,A*44
$GNRMC,103041,A,5800.136414,N,05617.665100,E,,, 260325,,,A*40
$GNRMC,103042,A,5800.135269,N,05617.666245,E,,, 260325,,,A*4d
$GNRMC,103043,A,5800.133209,N,05617.667160,E,,, 260325,,,A*49
$GNRMC,103044,A,5800.131378,N,05617.667847,E,,, 260325,,,A*47
$GNRMC,103045,A,5800.129776,N,05617.668533,E,,, 260325,,,A*44
$GNRMC,103046,A,5800.127487,N,05617.669449,E,,, 260325,,,A*49
$GNRMC,103047,A,5800.125656,N,05617.670135,E,,, 260325,,,A*42
$GNRMC,103048,A,5800.123596,N,05617.671967,E,,, 260325,,,A*4a
$GNRMC,103049,A,5800.122452,N,05617.674255,E,,, 260325,,,A*4c
$GNRMC,103050,A,5800.122223,N,05617.677460,E,,, 260325,,,A*47
$GNRMC,103051,A,5800.121765,N,05617.680893,E,,, 260325,,,A*4a
$GNRMC,103052,A,5800.121307,N,05617.684784,E,,, 260325,,,A*44
$GNRMC,103053,A,5800.121307,N,05617.688675,E,,, 260325,,,A*46
$GNRMC,103054,A,5800.121765,N,05617.692108,E,,, 260325,,,A*47
$GNRMC,103055,A,5800.122223,N,05617.695084,E,,, 260325,,,A*40
$GNRMC,103056,A,5800.122452,N,05617.696686,E,,, 260325,,,A*44
$GNRMC,103057,A,5800.122452,N,05617.698517,E,,, 260325,,,A*40
$GNRMC,103058,A,5800.122223,N,05617.699661,E,,, 260325,,,A*4c
$GNRMC,103059,A,5800.122223,N,05617.701263,E,,, 260325,,,A*4b
$GNRMC,103100,A,5800.122223,N,05617.702408,E,,, 260325,,,A*4e
$GNRMC,103101,A,5800.122223,N,05617.702866,E,,, 260325,,,A*4b
$GNRMC,103102,A,5800.122223,N,05617.703094,E,,, 260325,,,A*4c
$GNRMC,103103,A,5800.122223,N,05617.704010,E,,, 260325,,,A*46
$GNRMC,103104,A,5800.122452,N,05617.704697,E,,, 260325,,,A*48
$GNRMC,103105,A,5800.122452,N,05617.705383,E,,, 260325,,,A*48
$GNRMC,103106,A,5800.123367,N,05617.707443,E,,, 260325,,,A*42
$GNRMC,103107,A,5800.124741,N,05617.708817,E,,, 260325,,,A*46
$GNRMC,103108,A,5800.126801,N,05617.709732,E,,, 260325,,,A*49
$GNRMC,103109,A,5800.129089,N,05617.710190,E,,, 260325,,,A*49
$GNRMC,103110,A,5800.132523,N,05617.710190,E,,, 260325,,,A*4e
$GNRMC,103111,A,5800.135956,N,05617.710419,E,,, 260325,,,A*42
$GNRMC,103112,A,5800.140076,N,05617.710876,E,,, 260325,,,A*4d
$GNRMC,103113,A,5800.144424,N,05617.710876,E,,, 260325,,,A*4b
$GNRMC,103114,A,5800.149002,N,05617.710876,E,,, 260325,,,A*41
$GNRMC,103115,A,5800.154037,N,05617.710876,E,,, 260325,,,A*4a
$GNRMC,103116,A,5800.159302,N,05617.711334,E,,, 260325,,,A*4d
$GNRMC,103117,A,5800.164337,N,05617.711334,E,,, 260325,,,A*44
$GNRMC,103118,A,5800.169373,N,05617.710876,E,,, 260325,,,A*4a
$GNRMC,103119,A,5800.174637,N,05617.710419,E,,, 260325,,,A*47
$GNRMC,103120,A,5800.178986,N,05617.709732,E,,, 260325,,,A*46
$GNRMC,103121,A,5800.182877,N,05617.708817,E,,, 260325,,,A*44
$GNRMC,103122,A,5800.186310,N,05617.708130,E,,, 260325,,,A*45
$GNRMC,103123,A,5800.188599,N,05617.705841,E,,, 260325,,,A*4f
$GNRMC,103124,A,5800.191345,N,05617.704010,E,,, 260325,,,A*4a
$GNRMC,103125,A,5800.194321,N,05617.701721,E,,, 260325,,,A*4c
$GNRMC,103126,A,5800.197754,N,05617.698975,E,,, 260325,,,A*44
$GNRMC,103127,A,5800.200500,N,05617.696686,E,,, 260325,,,A*46
$GNRMC,103128,A,5800.203476,N,05617.693939,E,,, 260325,,,A*44
$GNRMC,103129,A,5800.206223,N,05617.691193,E,,, 260325,,,A*4c
$GNRMC,103130,A,5800.208511,N,05617.688675,E,,, 260325,,,A*4b
$GNRMC,103131,A,5800.211258,N,05617.686386,E,,, 260325,,,A*4f
$GNRMC,103132,A,5800.214233,N,05617.683182,E,,, 260325,,,A*47
$GNRMC,103133,A,5800.217667,N,05617.679749,E,,, 260325,,,A*44
$GNRMC,103134,A,5800.221100,N,05617.676315,E,,, 260325,,,A*42
$GNRMC,103135,A,5800.225449,N,05617.673111,E,,, 260325,,,A*4c
$GNRMC,103136,A,5800.229568,N,05617.669449,E,,, 260325,,,A*42
$GNRMC,103137,A,5800.233917,N,05617.665558,E,,, 260325,,,A*41
$GNRMC,103138,A,5800.238495,N,05617.661667,E,,, 260325,,,A*49
$GNRMC,103139,A,5800.243530,N,05617.657776,E,,, 260325,,,A*4e
$GNRMC,103140,A,5800.248337,N,05617.653198,E,,, 260325,,,A*48
$GNRMC,103141,A,5800.253372,N,05617.648621,E,,, 260325,,,A*4d
$GNRMC,103142,A,5800.258408,N,05617.644043,E,,, 260325,,,A*41
$GNRMC,103143,A,5800.263901,N,05617.639465,E,,, 260325,,,A*46
$GNRMC,103144,A,5800.268478,N,05617.635574,E,,, 260325,,,A*44
$GNRMC,103145,A,5800.272598,N,05617.632141,E,,, 260325,,,A*44
$GNRMC,103146,A,5800.276489,N,05617.629166,E,,, 260325,,,A*4d
$GNRMC,103147,A,5800.279465,N,05617.625961,E,,, 260325,,,A*42
$GNRMC,103148,A,5800.282669,N,05617.623215,E,,, 260325,,,A*49
$GNRMC,103149,A,5800.286102,N,05617.620239,E,,, 260325,,,A*4b
$GNRMC,103150,A,5800.289536,N,05617.617264,E,,, 260325,,,A*43
$GNRMC,103151,A,5800.293655,N,05617.613602,E,,, 260325,,,A*4f
$GNRMC,103152,A,5800.297546,N,05617.609940,E,,, 260325,,,A*4b
$GNRMC,103153,A,5800.301437,N,05617.606506,E,,, 260325,,,A*42
$GNRMC,103154,A,5800.304871,N,05617.603302,E,,, 260325,,,A*49
$GNRMC,103155,A,5800.307617,N,05617.600555,E,,, 260325,,,A*42
$GNRMC,103156,A,5800.308762,N,05617.597122,E,,, 260325,,,A*44
$GNRMC,103157,A,5800.309219,N,05617.593231,E,,, 260325,,,A*48
$GNRMC,103158,A,5800.308304,N,05617.589111,E,,, 260325,,,A*41
$GNRMC,103159,A,5800.307159,N,05617.584534,E,,, 260325,,,A*4b
$GNRMC,103200,A,5800.305557,N,05617.578812,E,,, 260325,,,A*46
$GNRMC,103201,A,5800.304184,N,05617.572632,E,,, 260325,,,A*4a
$GNRMC,103202,A,5800.302582,N,05617.565308,E,,, 260325,,,A*47
$GNRMC,103203,A,5800.300293,N,05617.557526,E,,, 260325,,,A*48
$GNRMC,103204,A,5800.298004,N,05617.548828,E,,, 260325,,,A*4e
$GNRMC,103205,A,5800.295715,N,05617.539215,E,,, 260325,,,A*47
$GNRMC,103206,A,5800.293427,N,05617.529144,E,,, 260325,,,A*46
$GNRMC,103207,A,5800.290680,N,05617.519531,E,,, 260325,,,A*4e
$GNRMC,103208,A,5800.288391,N,05617.509918,E,,, 260325,,,A*4b
$GNRMC,103209,A,5800.286102,N,05617.501221,E,,, 260325,,,A*45
$GNRMC,103210,A,5800.283813,N,05617.492065,E,,, 260325,,,A*48
$GNRMC,103211,A,5800.281525,N,05617.483139,E,,, 260325,,,A*4b
$GNRMC,103212,A,5800.278778,N,05617.473526,E,,, 260325,,,A*41
$GNRMC,103213,A,5800.276489,N,05617.464600,E,,, 260325,,,A*42
$GNRMC,103214,A,5800.274887,N,05617.457047,E,,, 260325,,,A*40
$GNRMC,103215,A,5800.273743,N,05617.451324,E,,, 260325,,,A*41
$GNRMC,103216,A,5800.272598,N,05617.446289,E,,, 260325,,,A*47
$GNRMC,103217,A,5800.271912,N,05617.441940,E,,, 260325,,,A*42
$GNRMC,103218,A,5800.271454,N,05617.438507,E,,, 260325,,,A*43
$GNRMC,103219,A,5800.270767,N,05617.435989,E,,, 260325,,,A*47
$GNRMC,103220,A,5800.269852,N,05617.433243,E,,, 260325,,,A*47
$GNRMC,103221,A,5800.269165,N,05617.429810,E,,, 260325,,,A*4c
$GNRMC,103222,A,5800.268021,N,05617.425232,E,,, 260325,,,A*49
$GNRMC,103223,A,5800.267334,N,05617.420197,E,,, 260325,,,A*49
$GNRMC,103224,A,5800.265732,N,05617.414474,E,,, 260325,,,A*41
$GNRMC,103225,A,5800.264130,N,05617.407379,E,,, 260325,,,A*4d
$GNRMC,103226,A,5800.262299,N,05617.399368,E,,, 260325,,,A*48
$GNRMC,103227,A,5800.260239,N,05617.390900,E,,, 260325,,,A*4c
$GNRMC,103228,A,5800.258408,N,05617.381287,E,,, 260325,,,A*48
$GNRMC,103229,A,5800.255661,N,05617.371445,E,,, 260325,,,A*4e
$GNRMC,103230,A,5800.253372,N,05617.360916,E,,, 260325,,,A*4c
$GNRMC,103231,A,5800.250397,N,05617.349472,E,,, 260325,,,A*41
$GNRMC,103232,A,5800.247650,N,05617.338028,E,,, 260325,,,A*47
$GNRMC,103233,A,5800.244904,N,05617.326813,E,,, 260325,,,A*44
$GNRMC,103234,A,5800.242386,N,05617.315826,E,,, 260325,,,A*43
$GNRMC,103235,A,5800.239639,N,05617.305069,E,,, 260325,,,A*4d
$GNRMC,103236,A,5800.236893,N,05617.294312,E,,, 260325,,,A*49
$GNRMC,103237,A,5800.234146,N,05617.284241,E,,, 260325,,,A*4d
$GNRMC,103238,A,5800.231857,N,05617.274170,E,,, 260325,,,A*40
$GNRMC,103239,A,5800.229568,N,05617.265015,E,,, 260325,,,A*4b
$GNRMC,103240,A,5800.227737,N,05617.255859,E,,, 260325,,,A*40
$GNRMC,103241,A,5800.226135,N,05617.247849,E,,, 260325,,,A*46
$GNRMC,103242,A,5800.224991,N,05617.240753,E,,, 260325,,,A*42
$GNRMC,103243,A,5800.224304,N,05617.235489,E,,, 260325,,,A*43
$GNRMC,103244,A,5800.223389,N,05617.231140,E,,, 260325,,,A*42
$GNRMC,103245,A,5800.223160,N,05617.229309,E,,, 260325,,,A*40
$GNRMC,103246,A,5800.223160,N,05617.228622,E,,, 260325,,,A*4e
$GNRMC,103247,A,5800.223160,N,05617.228622,E,,, 260325,,,A*4f
$GNRMC,103248,A,5800.223160,N,05617.228622,E,,, 260325,,,A*40
$GNRMC,103249,A,5800.223160,N,05617.228622,E,,, 260325,,,A*41
$GNRMC,103250,A,5800.223160,N,05617.228622,E,,, 260325,,,A*49
$GNRMC,103251,A,5800.223160,N,05617.228165,E,,, 260325,,,A*4c
$GNRMC,103252,A,5800.223160,N,05617.228165,E,,, 260325,,,A*4f
$GNRMC,103253,A,5800.223160,N,05617.228165,E,,, 260325,,,A*4e
$GNRMC,103254,A,5800.223160,N,05617.228165,E,,, 260325,,,A*49
$GNRMC,103255,A,5800.223160,N,05617.228165,E,,, 260325,,,A*48
$GNRMC,103256,A,5800.223389,N,05617.228165,E,,, 260325,,,A*4e
$GNRMC,103257,A,5800.223389,N,05617.227707,E,,, 260325,,,A*42
$GNRMC,103258,A,5800.223389,N,05617.227707,E,,, 260325,,,A*4d
$GNRMC,103259,A,5800.223389,N,05617.227707,E,,, 260325,,,A*4c
$GNRMC,103300,A,5800.223389,N,05617.227707,E,,, 260325,,,A*41
$GNRMC,103301,A,5800.223389,N,05617.227707,E,,, 260325,,,A*40
$GNRMC,103302,A,5800.223160,N,05617.227707,E,,, 260325,,,A*46
$GNRMC,103303,A,5800.223160,N,05617.227707,E,,, 260325,,,A*47
$GNRMC,103304,A,5800.223160,N,05617.227707,E,,, 260325,,,A*40
$GNRMC,103305,A,5800.223160,N,05617.227707,E,,, 260325,,,A*41
$GNRMC,103306,A,5800.223160,N,05617.228165,E,,, 260325,,,A*4f
$GNRMC,103307,A,5800.223160,N,05617.228165,E,,, 260325,,,A*4e
$GNRMC,103308,A,5800.223160,N,05617.228165,E,,, 260325,,,A*41
$GNRMC,103309,A,5800.223160,N,05617.228165,E,,, 260325,,,A*40
$GNRMC,103310,A,5800.223160,N,05617.228165,E,,, 260325,,,A*48
$GNRMC,103311,A,5800.223160,N,05617.228165,E,,, 260325,,,A*49
$GNRMC,103312,A,5800.223160,N,05617.228165,E,,, 260325,,,A*4a
$GNRMC,103313,A,5800.223160,N,05617.228165,E,,, 260325,,,A*4b
$GNRMC,103314,A,5800.223160,N,05617.228165,E,,, 260325,,,A*4c
$GNRMC,103315,A,5800.223160,N,05617.228165,E,,, 260325,,,A*4d
$GNRMC,103316,A,5800.222702,N,05617.228165,E,,, 260325,,,A*4d
$GNRMC,103317,A,5800.222702,N,05617.228165,E,,, 260325,,,A*4c
$GNRMC,103318,A,5800.222702,N,05617.228165,E,,, 260325,,,A*43
$GNRMC,103319,A,5800.222702,N,05617.228165,E,,, 260325,,,A*42
$GNRMC,103320,A,5800.222702,N,05617.228165,E,,, 260325,,,A*48
$GNRMC,103321,A,5800.222702,N,05617.228165,E,,, 260325,,,A*49
$GNRMC,103322,A,5800.222702,N,05617.228165,E,,, 260325,,,A*4a
$GNRMC,103323,A,5800.222702,N,05617.228165,E,,, 260325,,,A*4b
$GNRMC,103324,A,5800.222702,N,05617.228165,E,,, 260325,,,A*4c
$GNRMC,103325,A,5800.222702,N,05617.228165,E,,, 260325,,,A*4d
$GNRMC,103326,A,5800.222702,N,05617.228165,E,,, 260325,,,A*4e
$GNRMC,103327,A,5800.222702,N,05617.228165,E,,, 260325,,,A*4f
$GNRMC,103328,A,5800.222702,N,05617.228622,E,,, 260325,,,A*44
$GNRMC,103329,A,5800.222702,N,05617.228622,E,,, 260325,,,A*45
$GNRMC,103330,A,5800.222702,N,05617.228622,E,,, 260325,,,A*4d
$GNRMC,103331,A,5800.222702,N,05617.228622,E,,, 260325,,,A*4c
$GNRMC,103332,A,5800.222702,N,05617.228622,E,,, 260325,,,A*4f
$GNRMC,103333,A,5800.222702,N,05617.228622,E,,, 260325,,,A*4e
$GNRMC,103334,A,5800.222702,N,05617.228165,E,,, 260325,,,A*4d
$GNRMC,103335,A,5800.222702,N,05617.228165,E,,, 260325,,,A*4c
$GNRMC,103336,A,5800.223160,N,05617.228165,E,,, 260325,,,A*4c
$GNRMC,103337,A,5800.223160,N,05617.228165,E,,, 260325,,,A*4d
$GNRMC,103338,A,5800.222702,N,05617.227478,E,,, 260325,,,A*47
$GNRMC,103339,A,5800.222244,N,05617.225876,E,,, 260325,,,A*41
$GNRMC,103340,A,5800.221558,N,05617.223587,E,,, 260325,,,A*43
$GNRMC,103341,A,5800.220413,N,05617.220383,E,,, 260325,,,A*4c
$GNRMC,103342,A,5800.219269,N,05617.216721,E,,, 260325,,,A*47
$GNRMC,103343,A,5800.217667,N,05617.212830,E,,, 260325,,,A*49
$GNRMC,103344,A,5800.216522,N,05617.208939,E,,, 260325,,,A*4e
$GNRMC,103345,A,5800.216293,N,05617.205048,E,,, 260325,,,A*40
$GNRMC,103346,A,5800.216522,N,05617.201614,E,,, 260325,,,A*45
$GNRMC,103347,A,5800.217667,N,05617.198639,E,,, 260325,,,A*4b
$GNRMC,103348,A,5800.219727,N,05617.197037,E,,, 260325,,,A*48
$GNRMC,103349,A,5800.222244,N,05617.196579,E,,, 260325,,,A*4f
$GNRMC,103350,A,5800.225906,N,05617.196350,E,,, 260325,,,A*40
$GNRMC,103351,A,5800.229568,N,05617.195892,E,,, 260325,,,A*4f
$GNRMC,103352,A,5800.234146,N,05617.194748,E,,, 260325,,,A*41
$GNRMC,103353,A,5800.239182,N,05617.194061,E,,, 260325,,,A*49
$GNRMC,103354,A,5800.244675,N,05617.192459,E,,, 260325,,,A*42
$GNRMC,103355,A,5800.250397,N,05617.190628,E,,, 260325,,,A*49
$GNRMC,103356,A,5800.256805,N,05617.187424,E,,, 260325,,,A*44
$GNRMC,103357,A,5800.262985,N,05617.183533,E,,, 260325,,,A*48
$GNRMC,103358,A,5800.269623,N,05617.178726,E,,, 260325,,,A*4d
$GNRMC,103359,A,5800.276489,N,05617.172775,E,,, 260325,,,A*4c
$GNRMC,103400,A,5800.283356,N,05617.166824,E,,, 260325,,,A*46
$GNRMC,103401,A,5800.290680,N,05617.160187,E,,, 260325,,,A*4d
$GNRMC,103402,A,5800.298462,N,05617.153778,E,,, 260325,,,A*4e
$GNRMC,103403,A,5800.305557,N,05617.146683,E,,, 260325,,,A*4c
$GNRMC,103404,A,5800.313797,N,05617.139816,E,,, 260325,,,A*48
$GNRMC,103405,A,5800.321350,N,05617.132950,E,,, 260325,,,A*4f
$GNRMC,103406,A,5800.328674,N,05617.126312,E,,, 260325,,,A*4f
$GNRMC,103407,A,5800.335999,N,05617.119904,E,,, 260325,,,A*4f
$GNRMC,103408,A,5800.342636,N,05617.114182,E,,, 260325,,,A*41
$GNRMC,103409,A,5800.348587,N,05617.108459,E,,, 260325,,,A*4d
$GNRMC,103410,A,5800.353622,N,05617.102509,E,,, 260325,,,A*4d
$GNRMC,103411,A,5800.357971,N,05617.097702,E,,, 260325,,,A*45
$GNRMC,103412,A,5800.362091,N,05617.093811,E,,, 260325,,,A*4e
$GNRMC,103413,A,5800.365295,N,05617.090607,E,,, 260325,,,A*44
$GNRMC,103414,A,5800.367126,N,05617.088776,E,,, 260325,,,A*44
$GNRMC,103415,A,5800.367813,N,05617.088089,E,,, 260325,,,A*4d
$GNRMC,103416,A,5800.368271,N,05617.087631,E,,, 260325,,,A*45
$GNRMC,103417,A,5800.367813,N,05617.087631,E,,, 260325,,,A*45
$GNRMC,103418,A,5800.367813,N,05617.087631,E,,, 260325,,,A*4a
$GNRMC,103419,A,5800.367813,N,05617.087631,E,,, 260325,,,A*4b
$GNRMC,103420,A,5800.367813,N,05617.087631,E,,, 260325,,,A*41
$GNRMC,103421,A,5800.367813,N,05617.087631,E,,, 260325,,,A*40
$GNRMC,103422,A,5800.367813,N,05617.087631,E,,, 260325,,,A*43
$GNRMC,103423,A,5800.367813,N,05617.087173,E,,, 260325,,,A*43
$GNRMC,103424,A,5800.367813,N,05617.087173,E,,, 260325,,,A*44
$GNRMC,103425,A,5800.367813,N,05617.087173,E,,, 260325,,,A*45
$GNRMC,103426,A,5800.367813,N,05617.087173,E,,, 260325,,,A*46
$GNRMC,103427,A,5800.367813,N,05617.087173,E,,, 260325,,,A*47
$GNRMC,103428,A,5800.367813,N,05617.087173,E,,, 260325,,,A*48
$GNRMC,103429,A,5800.367813,N,05617.087173,E,,, 260325,,,A*49
$GNRMC,103430,A,5800.367813,N,05617.087173,E,,, 260325,,,A*41
$GNRMC,103431,A,5800.367813,N,05617.087173,E,,, 260325,,,A*40
$GNRMC,103432,A,5800.367813,N,05617.086945,E,,, 260325,,,A*4f
$GNRMC,103433,A,5800.367813,N,05617.086945,E,,, 260325,,,A*4e
$GNRMC,103434,A,5800.367813,N,05617.086945,E,,, 260325,,,A*49
$GNRMC,103435,A,5800.367813,N,05617.086945,E,,, 260325,,,A*48
$GNRMC,103436,A,5800.367813,N,05617.086945,E,,, 260325,,,A*4b
$GNRMC,103437,A,5800.367813,N,05617.086945,E,,, 260325,,,A*4a
$GNRMC,103438,A,5800.367813,N,05617.086945,E,,, 260325,,,A*45
$GNRMC,103439,A,5800.367813,N,05617.086945,E,,, 260325,,,A*44
$GNRMC,103440,A,5800.367813,N,05617.086945,E,,, 260325,,,A*4a
$GNRMC,103441,A,5800.367813,N,05617.086945,E,,, 260325,,,A*4b
$GNRMC,103442,A,5800.367813,N,05617.086945,E,,, 260325,,,A*48
$GNRMC,103443,A,5800.367813,N,05617.086945,E,,, 260325,,,A*49
$GNRMC,103444,A,5800.367813,N,05617.086945,E,,, 260325,,,A*4e
$GNRMC,103445,A,5800.367813,N,05617.086945,E,,, 260325,,,A*4f
$GNRMC,103446,A,5800.367813,N,05617.086945,E,,, 260325,,,A*4c
$GNRMC,103447,A,5800.367813,N,05617.086945,E,,, 260325,,,A*4d
$GNRMC,103448,A,5800.367813,N,05617.086945,E,,, 260325,,,A*42
$GNRMC,103449,A,5800.367813,N,05617.086487,E,,, 260325,,,A*40
$GNRMC,103450,A,5800.367584,N,05617.086487,E,,, 260325,,,A*4b
$GNRMC,103451,A,5800.367584,N,05617.086487,E,,, 260325,,,A*4a
$GNRMC,103452,A,5800.367584,N,05617.086487,E,,, 260325,,,A*49
$GNRMC,103453,A,5800.367584,N,05617.086487,E,,, 260325,,,A*48
$GNRMC,103454,A,5800.367584,N,05617.086487,E,,, 260325,,,A*4f
$GNRMC,103455,A,5800.367584,N,05617.086487,E,,, 260325,,,A*4e
$GNRMC,103456,A,5800.367584,N,05617.086487,E,,, 260325,,,A*4d
$GNRMC,103457,A,5800.367584,N,05617.086487,E,,, 260325,,,A*4c
$GNRMC,103458,A,5800.367584,N,05617.086029,E,,, 260325,,,A*43
$GNRMC,103459,A,5800.367126,N,05617.086029,E,,, 260325,,,A*4e
$GNRMC,103500,A,5800.367126,N,05617.086029,E,,, 260325,,,A*43
$GNRMC,103501,A,5800.367126,N,05617.086029,E,,, 260325,,,A*42
$GNRMC,103502,A,5800.367126,N,05617.086029,E,,, 260325,,,A*41
$GNRMC,103503,A,5800.367126,N,05617.086029,E,,, 260325,,,A*40
$GNRMC,103504,A,5800.366669,N,05617.086029,E,,, 260325,,,A*4a
$GNRMC,103505,A,5800.366669,N,05617.086029,E,,, 260325,,,A*4b
$GNRMC,103506,A,5800.366669,N,05617.086029,E,,, 260325,,,A*48
$GNRMC,103507,A,5800.366440,N,05617.085800,E,,, 260325,,,A*40
$GNRMC,103508,A,5800.366669,N,05617.085800,E,,, 260325,,,A*46
$GNRMC,103509,A,5800.367813,N,05617.084198,E,,, 260325,,,A*4c
$GNRMC,103510,A,5800.370560,N,05617.081909,E,,, 260325,,,A*4e
$GNRMC,103511,A,5800.374451,N,05617.078705,E,,, 260325,,,A*4c
$GNRMC,103512,A,5800.378571,N,05617.076416,E,,, 260325,,,A*4f
$GNRMC,103513,A,5800.382462,N,05617.074585,E,,, 260325,,,A*41
$GNRMC,103514,A,5800.385437,N,05617.072754,E,,, 260325,,,A*49
$GNRMC,103515,A,5800.388184,N,05617.071152,E,,, 260325,,,A*4b
$GNRMC,103516,A,5800.390472,N,05617.069550,E,,, 260325,,,A*42
$GNRMC,103517,A,5800.392761,N,05617.068405,E,,, 260325,,,A*40
$GNRMC,103518,A,5800.395508,N,05617.066574,E,,, 260325,,,A*4c
$GNRMC,103519,A,5800.398254,N,05617.064514,E,,, 260325,,,A*4a
$GNRMC,103520,A,5800.401001,N,05617.062225,E,,, 260325,,,A*46
$GNRMC,103521,A,5800.403976,N,05617.059479,E,,, 260325,,,A*4b
$GNRMC,103522,A,5800.406723,N,05617.057190,E,,, 260325,,,A*4f
$GNRMC,103523,A,5800.409241,N,05617.054901,E,,, 260325,,,A*43
$GNRMC,103524,A,5800.411987,N,05617.052383,E,,, 260325,,,A*4a
$GNRMC,103525,A,5800.415192,N,05617.049179,E,,, 260325,,,A*4e
$GNRMC,103526,A,5800.418167,N,05617.045746,E,,, 260325,,,A*4c
$GNRMC,103527,A,5800.421600,N,05617.041855,E,,, 260325,,,A*48
$GNRMC,103528,A,5800.425034,N,05617.037277,E,,, 260325,,,A*49
$GNRMC,103529,A,5800.428925,N,05617.033386,E,,, 260325,,,A*47
$GNRMC,103530,A,5800.433502,N,05617.029724,E,,, 260325,,,A*4b
$GNRMC,103531,A,5800.438538,N,05617.025375,E,,, 260325,,,A*44
$GNRMC,103532,A,5800.443573,N,05617.020798,E,,, 260325,,,A*46
$GNRMC,103533,A,5800.448837,N,05617.015762,E,,, 260325,,,A*42
$GNRMC,103534,A,5800.454330,N,05617.010727,E,,, 260325,,,A*40
$GNRMC,103535,A,5800.460052,N,05617.005463,E,,, 260325,,,A*46
$GNRMC,103536,A,5800.466232,N,05616.999969,E,,, 260325,,,A*4d
$GNRMC,103537,A,5800.471954,N,05616.995163,E,,, 260325,,,A*4f
$GNRMC,103538,A,5800.477676,N,05616.990128,E,,, 260325,,,A*43
$GNRMC,103539,A,5800.483398,N,05616.985092,E,,, 260325,,,A*48
$GNRMC,103540,A,5800.489120,N,05616.980057,E,,, 260325,,,A*41
$GNRMC,103541,A,5800.495071,N,05616.974792,E,,, 260325,,,A*4d
$GNRMC,103542,A,5800.500336,N,05616.969757,E,,, 260325,,,A*46
$GNRMC,103543,A,5800.506058,N,05616.964264,E,,, 260325,,,A*42
$GNRMC,103544,A,5800.511780,N,05616.959457,E,,, 260325,,,A*49
$GNRMC,103545,A,5800.517731,N,05616.953964,E,,, 260325,,,A*43
$GNRMC,103546,A,5800.523453,N,05616.949387,E,,, 260325,,,A*4c
$GNRMC,103547,A,5800.529175,N,05616.944351,E,,, 260325,,,A*40
$GNRMC,103548,A,5800.534439,N,05616.939087,E,,, 260325,,,A*4c
$GNRMC,103549,A,5800.540390,N,05616.934052,E,,, 260325,,,A*4f
$GNRMC,103550,A,5800.545654,N,05616.928558,E,,, 260325,,,A*4d
$GNRMC,103551,A,5800.551376,N,05616.923752,E,,, 260325,,,A*4f
$GNRMC,103552,A,5800.557098,N,05616.918945,E,,, 260325,,,A*49
$GNRMC,103553,A,5800.562592,N,05616.914139,E,,, 260325,,,A*4e
$GNRMC,103554,A,5800.567627,N,05616.909332,E,,, 260325,,,A*44
$GNRMC,103555,A,5800.572433,N,05616.905670,E,,, 260325,,,A*49
$GNRMC,103556,A,5800.576782,N,05616.901779,E,,, 260325,,,A*4b
$GNRMC,103557,A,5800.579758,N,05616.899033,E,,, 260325,,,A*4b
$GNRMC,103558,A,5800.582504,N,05616.896744,E,,, 260325,,,A*43
$GNRMC,103559,A,5800.584793,N,05616.894913,E,,, 260325,,,A*46
$GNRMC,103600,A,5800.586853,N,05616.892853,E,,, 260325,,,A*4b
$GNRMC,103601,A,5800.588226,N,05616.891708,E,,, 260325,,,A*4e
$GNRMC,103602,A,5800.589828,N,05616.890564,E,,, 260325,,,A*41
$GNRMC,103603,A,5800.590973,N,05616.889191,E,,, 260325,,,A*41
$GNRMC,103604,A,5800.592117,N,05616.888275,E,,, 260325,,,A*46
$GNRMC,103605,A,5800.592804,N,05616.887589,E,,, 260325,,,A*47
$GNRMC,103606,A,5800.593262,N,05616.887131,E,,, 260325,,,A*48
$GNRMC,103607,A,5800.593719,N,05616.886673,E,,, 260325,,,A*40
$GNRMC,103608,A,5800.594406,N,05616.886444,E,,, 260325,,,A*43
$GNRMC,103609,A,5800.594864,N,05616.886444,E,,, 260325,,,A*4a
$GNRMC,103610,A,5800.594864,N,05616.885986,E,,, 260325,,,A*42
$GNRMC,103611,A,5800.595093,N,05616.885986,E,,, 260325,,,A*42
$GNRMC,103612,A,5800.595093,N,05616.885529,E,,, 260325,,,A*48
$GNRMC,103613,A,5800.595551,N,05616.885529,E,,, 260325,,,A*42
$GNRMC,103614,A,5800.595551,N,05616.885529,E,,, 260325,,,A*45
$GNRMC,103615,A,5800.595551,N,05616.885529,E,,, 260325,,,A*44
$GNRMC,103616,A,5800.595551,N,05616.885529,E,,, 260325,,,A*47
$GNRMC,103617,A,5800.595551,N,05616.885300,E,,, 260325,,,A*4b
$GNRMC,103618,A,5800.595551,N,05616.885300,E,,, 260325,,,A*44
$GNRMC,103619,A,5800.595551,N,05616.885300,E,,, 260325,,,A*45
$GNRMC,103620,A,5800.595551,N,05616.885300,E,,, 260325,,,A*4f
$GNRMC,103621,A,5800.595551,N,05616.885300,E,,, 260325,,,A*4e
$GNRMC,103622,A,5800.595551,N,05616.885300,E,,, 260325,,,A*4d
$GNRMC,103623,A,5800.595551,N,05616.884842,E,,, 260325,,,A*40
$GNRMC,103624,A,5800.595551,N,05616.884842,E,,, 260325,,,A*47
$GNRMC,103625,A,5800.595551,N,05616.884842,E,,, 260325,,,A*46
$GNRMC,103626,A,5800.595551,N,05616.884842,E,,, 260325,,,A*45
$GNRMC,103627,A,5800.595551,N,05616.884842,E,,, 260325,,,A*44
$GNRMC,103628,A,5800.595551,N,05616.884842,E,,, 260325,,,A*4b
$GNRMC,103629,A,5800.595093,N,05616.884842,E,,, 260325,,,A*41
$GNRMC,103630,A,5800.595093,N,05616.884842,E,,, 260325,,,A*49
$GNRMC,103631,A,5800.595093,N,05616.884384,E,,, 260325,,,A*49
$GNRMC,103632,A,5800.595093,N,05616.884384,E,,, 260325,,,A*4a
$GNRMC,103633,A,5800.595093,N,05616.884384,E,,, 260325,,,A*4b
$GNRMC,103634,A,5800.595093,N,05616.884384,E,,, 260325,,,A*4c
$GNRMC,103635,A,5800.596008,N,05616.883698,E,,, 260325,,,A*43
$GNRMC,103636,A,5800.597153,N,05616.882553,E,,, 260325,,,A*4b
$GNRMC,103637,A,5800.598984,N,05616.880951,E,,, 260325,,,A*4b
$GNRMC,103638,A,5800.601044,N,05616.878662,E,,, 260325,,,A*4a
$GNRMC,103639,A,5800.603333,N,05616.876373,E,,, 260325,,,A*41
$GNRMC,103640,A,5800.606308,N,05616.874084,E,,, 260325,,,A*4b
$GNRMC,103641,A,5800.608597,N,05616.871796,E,,, 260325,,,A*45
$GNRMC,103642,A,5800.611801,N,05616.869049,E,,, 260325,,,A*40
$GNRMC,103643,A,5800.615234,N,05616.866531,E,,, 260325,,,A*4c
$GNRMC,103644,A,5800.619354,N,05616.863327,E,,, 260325,,,A*44
$GNRMC,103645,A,5800.623703,N,05616.859207,E,,, 260325,,,A*40
$GNRMC,103646,A,5800.628281,N,05616.855316,E,,, 260325,,,A*4a
$GNRMC,103647,A,5800.633316,N,05616.850739,E,,, 260325,,,A*42
$GNRMC,103648,A,5800.638580,N,05616.846161,E,,, 260325,,,A*43
$GNRMC,103649,A,5800.644073,N,05616.841583,E,,, 260325,,,A*4f
$GNRMC,103650,A,5800.649796,N,05616.836548,E,,, 260325,,,A*41
$GNRMC,103651,A,5800.655518,N,05616.831970,E,,, 260325,,,A*49
$GNRMC,103652,A,5800.660782,N,05616.826935,E,,, 260325,,,A*4a
$GNRMC,103653,A,5800.666733,N,05616.821899,E,,, 260325,,,A*47
$GNRMC,103654,A,5800.672455,N,05616.816406,E,,, 260325,,,A*48
$GNRMC,103655,A,5800.678635,N,05616.811600,E,,, 260325,,,A*44
$GNRMC,103656,A,5800.684357,N,05616.806107,E,,, 260325,,,A*43
$GNRMC,103657,A,5800.689621,N,05616.801529,E,,, 260325,,,A*44
$GNRMC,103658,A,5800.694656,N,05616.797409,E,,, 260325,,,A*44
$GNRMC,103659,A,5800.699692,N,05616.795120,E,,, 260325,,,A*4c
$GNRMC,103700,A,5800.704956,N,05616.793747,E,,, 260325,,,A*42
$GNRMC,103701,A,5800.710449,N,05616.794205,E,,, 260325,,,A*41
$GNRMC,103702,A,5800.715485,N,05616.795349,E,,, 260325,,,A*4f
$GNRMC,103703,A,5800.721207,N,05616.798553,E,,, 260325,,,A*45
$GNRMC,103704,A,5800.726929,N,05616.801987,E,,, 260325,,,A*48
$GNRMC,103705,A,5800.732651,N,05616.804962,E,,, 260325,,,A*42
$GNRMC,103706,A,5800.738373,N,05616.808167,E,,, 260325,,,A*4f
$GNRMC,103707,A,5800.744095,N,05616.811142,E,,, 260325,,,A*41
$GNRMC,103708,A,5800.749588,N,05616.813889,E,,, 260325,,,A*46
$GNRMC,103709,A,5800.754623,N,05616.816864,E,,, 260325,,,A*4f
$GNRMC,103710,A,5800.759201,N,05616.820068,E,,, 260325,,,A*4f
$GNRMC,103711,A,5800.763321,N,05616.823044,E,,, 260325,,,A*49
$GNRMC,103712,A,5800.767670,N,05616.825790,E,,, 260325,,,A*47
$GNRMC,103713,A,5800.771561,N,05616.828079,E,,, 260325,,,A*4f
$GNRMC,103714,A,5800.774994,N,05616.829910,E,,, 260325,,,A*4c
$GNRMC,103715,A,5800.777512,N,05616.831970,E,,, 260325,,,A*43
$GNRMC,103716,A,5800.780716,N,05616.833801,E,,, 260325,,,A*4b
$GNRMC,103717,A,5800.783463,N,05616.834946,E,,, 260325,,,A*4d
$GNRMC,103718,A,5800.785751,N,05616.836090,E,,, 260325,,,A*46
$GNRMC,103719,A,5800.788040,N,05616.837692,E,,, 260325,,,A*48
$GNRMC,103720,A,5800.789413,N,05616.839066,E,,, 260325,,,A*42
$GNRMC,103721,A,5800.790558,N,05616.839981,E,,, 260325,,,A*45
$GNRMC,103722,A,5800.791473,N,05616.841125,E,,, 260325,,,A*46
$GNRMC,103723,A,5800.791702,N,05616.842270,E,,, 260325,,,A*42
$GNRMC,103724,A,5800.792160,N,05616.842728,E,,, 260325,,,A*4c
$GNRMC,103725,A,5800.792160,N,05616.842957,E,,, 260325,,,A*4b
$GNRMC,103726,A,5800.792160,N,05616.843414,E,,, 260325,,,A*43
$GNRMC,103727,A,5800.792160,N,05616.843872,E,,, 260325,,,A*4e
$GNRMC,103728,A,5800.792160,N,05616.844101,E,,, 260325,,,A*4b
$GNRMC,103729,A,5800.792160,N,05616.844559,E,,, 260325,,,A*43
$GNRMC,103730,A,5800.792160,N,05616.845016,E,,, 260325,,,A*44
$GNRMC,103731,A,5800.792160,N,05616.845016,E,,, 260325,,,A*45
$GNRMC,103732,A,5800.792160,N,05616.845245,E,,, 260325,,,A*42
$GNRMC,103733,A,5800.792160,N,05616.845016,E,,, 260325,,,A*47
$GNRMC,103734,A,5800.792160,N,05616.845016,E,,, 260325,,,A*40
$GNRMC,103735,A,5800.792160,N,05616.845016,E,,, 260325,,,A*41
$GNRMC,103736,A,5800.792160,N,05616.845016,E,,, 260325,,,A*42
$GNRMC,103737,A,5800.792618,N,05616.845016,E,,, 260325,,,A*4b
$GNRMC,103738,A,5800.792618,N,05616.844559,E,,, 260325,,,A*4b
$GNRMC,103739,A,5800.792618,N,05616.844559,E,,, 260325,,,A*4a
$GNRMC,103740,A,5800.792618,N,05616.844559,E,,, 260325,,,A*44
$GNRMC,103741,A,5800.792618,N,05616.844101,E,,, 260325,,,A*4c
$GNRMC,103742,A,5800.792618,N,05616.844101,E,,, 260325,,,A*4f
$GNRMC,103743,A,5800.792618,N,05616.844101,E,,, 260325,,,A*4e
$GNRMC,103744,A,5800.792618,N,05616.844101,E,,, 260325,,,A*49
$GNRMC,103745,A,5800.792618,N,05616.844101,E,,, 260325,,,A*48
$GNRMC,103746,A,5800.792847,N,05616.844101,E,,, 260325,,,A*4f
$GNRMC,103747,A,5800.792847,N,05616.844101,E,,, 260325,,,A*4e
$GNRMC,103748,A,5800.792847,N,05616.844559,E,,, 260325,,,A*48
$GNRMC,103749,A,5800.792847,N,05616.844559,E,,, 260325,,,A*49
$GNRMC,103750,A,5800.792847,N,05616.844559,E,,, 260325,,,A*41
$GNRMC,103751,A,5800.792847,N,05616.844559,E,,, 260325,,,A*40
$GNRMC,103752,A,5800.792847,N,05616.845016,E,,, 260325,,,A*4c
$GNRMC,103753,A,5800.792847,N,05616.845016,E,,, 260325,,,A*4d
$GNRMC,103754,A,5800.792847,N,05616.845016,E,,, 260325,,,A*4a
$GNRMC,103755,A,5800.793304,N,05616.845016,E,,, 260325,,,A*46
$GNRMC,103756,A,5800.793304,N,05616.845245,E,,, 260325,,,A*41
$GNRMC,103757,A,5800.793304,N,05616.845245,E,,, 260325,,,A*40
$GNRMC,103758,A,5800.793304,N,05616.845245,E,,, 260325,,,A*4f
$GNRMC,103759,A,5800.793304,N,05616.845245,E,,, 260325,,,A*4e
$GNRMC,103800,A,5800.793304,N,05616.845245,E,,, 260325,,,A*4d
$GNRMC,103801,A,5800.793304,N,05616.845245,E,,, 260325,,,A*4c
$GNRMC,103802,A,5800.793304,N,05616.845245,E,,, 260325,,,A*4f
$GNRMC,103803,A,5800.793304,N,05616.845703,E,,, 260325,,,A*49
$GNRMC,103804,A,5800.793304,N,05616.845703,E,,, 260325,,,A*4e
$GNRMC,103805,A,5800.793304,N,05616.845703,E,,, 260325,,,A*4f
$GNRMC,103806,A,5800.793304,N,05616.845703,E,,, 260325,,,A*4c
$GNRMC,103807,A,5800.793304,N,05616.845703,E,,, 260325,,,A*4d
$GNRMC,103808,A,5800.793304,N,05616.846161,E,,, 260325,,,A*43
$GNRMC,103809,A,5800.793304,N,05616.846161,E,,, 260325,,,A*42
$GNRMC,103810,A,5800.793304,N,05616.846161,E,,, 260325,,,A*4a
$GNRMC,103811,A,5800.793304,N,05616.846390,E,,, 260325,,,A*47
$GNRMC,103812,A,5800.793304,N,05616.846390,E,,, 260325,,,A*44
$GNRMC,103813,A,5800.793304,N,05616.846390,E,,, 260325,,,A*45
$GNRMC,103814,A,5800.793304,N,05616.846848,E,,, 260325,,,A*4c
$GNRMC,103815,A,5800.793304,N,05616.846848,E,,, 260325,,,A*4d
$GNRMC,103816,A,5800.793304,N,05616.846848,E,,, 260325,,,A*4e
$GNRMC,103817,A,5800.793304,N,05616.846848,E,,, 260325,,,A*4f
$GNRMC,103818,A,5800.793304,N,05616.846848,E,,, 260325,,,A*40
$GNRMC,103819,A,5800.793304,N,05616.846848,E,,, 260325,,,A*41
$GNRMC,103820,A,5800.793304,N,05616.846848,E,,, 260325,,,A*4b
$GNRMC,103821,A,5800.793304,N,05616.846848,E,,, 260325,,,A*4a
$GNRMC,103822,A,5800.793304,N,05616.846848,E,,, 260325,,,A*49
$GNRMC,103823,A,5800.793304,N,05616.846848,E,,, 260325,,,A*48
$GNRMC,103824,A,5800.793304,N,05616.846848,E,,, 260325,,,A*4f
$GNRMC,103825,A,5800.793304,N,05616.847305,E,,, 260325,,,A*4d
$GNRMC,103826,A,5800.793304,N,05616.847305,E,,, 260325,,,A*4e
$GNRMC,103827,A,5800.793304,N,05616.847305,E,,, 260325,,,A*4f
$GNRMC,103828,A,5800.793304,N,05616.847305,E,,, 260325,,,A*40
$GNRMC,103829,A,5800.793304,N,05616.846848,E,,, 260325,,,A*42
$GNRMC,103830,A,5800.793304,N,05616.846848,E,,, 260325,,,A*4a
$GNRMC,103831,A,5800.793304,N,05616.846848,E,,, 260325,,,A*4b
$GNRMC,103832,A,5800.793304,N,05616.846848,E,,, 260325,,,A*48
$GNRMC,103833,A,5800.793304,N,05616.846848,E,,, 260325,,,A*49
$GNRMC,103834,A,5800.793304,N,05616.846848,E,,, 260325,,,A*4e
$GNRMC,103835,A,5800.793304,N,05616.846848,E,,, 260325,,,A*4f
$GNRMC,103836,A,5800.793304,N,05616.846848,E,,, 260325,,,A*4c
$GNRMC,103837,A,5800.793304,N,05616.846848,E,,, 260325,,,A*4d
$GNRMC,103838,A,5800.793304,N,05616.846848,E,,, 260325,,,A*42
$GNRMC,103839,A,5800.792847,N,05616.846848,E,,, 260325,,,A*4e
$GNRMC,103840,A,5800.792847,N,05616.846848,E,,, 260325,,,A*40
$GNRMC,103841,A,5800.792847,N,05616.846848,E,,, 260325,,,A*41
$GNRMC,103842,A,5800.792847,N,05616.846848,E,,, 260325,,,A*42
$GNRMC,103843,A,5800.792847,N,05616.846848,E,,, 260325,,,A*43
$GNRMC,103844,A,5800.792847,N,05616.846848,E,,, 260325,,,A*44
$GNRMC,103845,A,5800.792847,N,05616.846848,E,,, 260325,,,A*45
$GNRMC,103846,A,5800.792847,N,05616.846848,E,,, 260325,,,A*46
$GNRMC,103847,A,5800.792847,N,05616.846848,E,,, 260325,,,A*47
$GNRMC,103848,A,5800.792847,N,05616.846848,E,,, 260325,,,A*48
$GNRMC,103849,A,5800.792847,N,05616.847305,E,,, 260325,,,A*4a
$GNRMC,103850,A,5800.792847,N,05616.847305,E,,, 260325,,,A*42
$GNRMC,103851,A,5800.792847,N,05616.847305,E,,, 260325,,,A*43
$GNRMC,103852,A,5800.792847,N,05616.847305,E,,, 260325,,,A*40
$GNRMC,103853,A,5800.792847,N,05616.847305,E,,, 260325,,,A*41
$GNRMC,103854,A,5800.792847,N,05616.847305,E,,, 260325,,,A*46
$GNRMC,103855,A,5800.792847,N,05616.847534,E,,, 260325,,,A*43
$GNRMC,103856,A,5800.792847,N,05616.847534,E,,, 260325,,,A*40
$GNRMC,103857,A,5800.792847,N,05616.847534,E,,, 260325,,,A*41
$GNRMC,103858,A,5800.792847,N,05616.847534,E,,, 260325,,,A*4e
$GNRMC,103859,A,5800.792847,N,05616.847992,E,,, 260325,,,A*4f
$GNRMC,103900,A,5800.792847,N,05616.847992,E,,, 260325,,,A*42
$GNRMC,103901,A,5800.792847,N,05616.847992,E,,, 260325,,,A*43
$GNRMC,103902,A,5800.792847,N,05616.848450,E,,, 260325,,,A*4c
$GNRMC,103903,A,5800.792847,N,05616.848450,E,,, 260325,,,A*4d
$GNRMC,103904,A,5800.792847,N,05616.848450,E,,, 260325,,,A*4a
$GNRMC,103905,A,5800.792847,N,05616.848450,E,,, 260325,,,A*4b
$GNRMC,103906,A,5800.792847,N,05616.848450,E,,, 260325,,,A*48
$GNRMC,103907,A,5800.792847,N,05616.848679,E,,, 260325,,,A*40
$GNRMC,103908,A,5800.792847,N,05616.848679,E,,, 260325,,,A*4f
$GNRMC,103909,A,5800.792847,N,05616.848679,E,,, 260325,,,A*4e
$GNRMC,103910,A,5800.792847,N,05616.848679,E,,, 260325,,,A*46
$GNRMC,103911,A,5800.792847,N,05616.849136,E,,, 260325,,,A*4a
$GNRMC,103912,A,5800.792847,N,05616.849136,E,,, 260325,,,A*49
$GNRMC,103913,A,5800.792847,N,05616.849136,E,,, 260325,,,A*48
$GNRMC,103914,A,5800.792847,N,05616.849136,E,,, 260325,,,A*4f
$GNRMC,103915,A,5800.792847,N,05616.849594,E,,, 260325,,,A*42
$GNRMC,103916,A,5800.792847,N,05616.849594,E,,, 260325,,,A*41
$GNRMC,103917,A,5800.792847,N,05616.849594,E,,, 260325,,,A*40
$GNRMC,103918,A,5800.792847,N,05616.849823,E,,, 260325,,,A*4e
$GNRMC,103919,A,5800.792847,N,05616.849823,E,,, 260325,,,A*4f
$GNRMC,103920,A,5800.792847,N,05616.849823,E,,, 260325,,,A*45
$GNRMC,103921,A,5800.792847,N,05616.850281,E,,, 260325,,,A*4e
$GNRMC,103922,A,5800.792847,N,05616.850281,E,,, 260325,,,A*4d
$GNRMC,103923,A,5800.792847,N,05616.850281,E,,, 260325,,,A*4c
$GNRMC,103924,A,5800.792847,N,05616.850281,E,,, 260325,,,A*4b
$GNRMC,103925,A,5800.792847,N,05616.850281,E,,, 260325,,,A*4a
$GNRMC,103926,A,5800.792847,N,05616.850739,E,,, 260325,,,A*4f
$GNRMC,103927,A,5800.792847,N,05616.850739,E,,, 260325,,,A*4e
$GNRMC,103928,A,5800.792847,N,05616.850739,E,,, 260325,,,A*41
$GNRMC,103929,A,5800.792847,N,05616.850739,E,,, 260325,,,A*40
$GNRMC,103930,A,5800.792847,N,05616.850739,E,,, 260325,,,A*48
$GNRMC,103931,A,5800.792847,N,05616.850739,E,,, 260325,,,A*49
$GNRMC,103932,A,5800.792847,N,05616.850739,E,,, 260325,,,A*4a
$GNRMC,103933,A,5800.792847,N,05616.850739,E,,, 260325,,,A*4b
$GNRMC,103934,A,5800.792847,N,05616.850739,E,,, 260325,,,A*4c
$GNRMC,103935,A,5800.792847,N,05616.850739,E,,, 260325,,,A*4d
$GNRMC,103936,A,5800.792847,N,05616.850739,E,,, 260325,,,A*4e
$GNRMC,103937,A,5800.792847,N,05616.850739,E,,, 260325,,,A*4f
$GNRMC,103938,A,5800.792847,N,05616.850739,E,,, 260325,,,A*40
$GNRMC,103939,A,5800.792847,N,05616.850739,E,,, 260325,,,A*41
$GNRMC,103940,A,5800.792847,N,05616.850739,E,,, 260325,,,A*4f
$GNRMC,103941,A,5800.792847,N,05616.850739,E,,, 260325,,,A*4e
$GNRMC,103942,A,5800.792847,N,05616.850739,E,,, 260325,,,A*4d
$GNRMC,103943,A,5800.792847,N,05616.850739,E,,, 260325,,,A*4c
$GNRMC,103944,A,5800.792847,N,05616.850281,E,,, 260325,,,A*4d
$GNRMC,103945,A,5800.793304,N,05616.850281,E,,, 260325,,,A*41
$GNRMC,103946,A,5800.793304,N,05616.850281,E,,, 260325,,,A*42
$GNRMC,103947,A,5800.793304,N,05616.850281,E,,, 260325,,,A*43
$GNRMC,103948,A,5800.793304,N,05616.850281,E,,, 260325,,,A*4c
$GNRMC,103949,A,5800.793304,N,05616.850281,E,,, 260325,,,A*4d
$GNRMC,103950,A,5800.793304,N,05616.850281,E,,, 260325,,,A*45
$GNRMC,103951,A,5800.793304,N,05616.850281,E,,, 260325,,,A*44
$GNRMC,103952,A,5800.793304,N,05616.850281,E,,, 260325,,,A*47
$GNRMC,103953,A,5800.793304,N,05616.850281,E,,, 260325,,,A*46
$GNRMC,103954,A,5800.793304,N,05616.850281,E,,, 260325,,,A*41
$GNRMC,103955,A,5800.793304,N,05616.850281,E,,, 260325,,,A*40
$GNRMC,103956,A,5800.793304,N,05616.850281,E,,, 260325,,,A*43
$GNRMC,103957,A,5800.792847,N,05616.850281,E,,, 260325,,,A*4f
$GNRMC,103958,A,5800.792847,N,05616.849823,E,,, 260325,,,A*4a
$GNRMC,103959,A,5800.792847,N,05616.849823,E,,, 260325,,,A*4b
$GNRMC,104000,A,5800.792847,N,05616.849823,E,,, 260325,,,A*49
$GNRMC,104001,A,5800.792847,N,05616.849823,E,,, 260325,,,A*48
$GNRMC,104002,A,5800.792847,N,05616.849823,E,,, 260325,,,A*4b
$GNRMC,104003,A,5800.792847,N,05616.849823,E,,, 260325,,,A*4a
$GNRMC,104004,A,5800.792847,N,05616.849823,E,,, 260325,,,A*4d
$GNRMC,104005,A,5800.792847,N,05616.849823,E,,, 260325,,,A*4c
$GNRMC,104006,A,5800.792618,N,05616.849823,E,,, 260325,,,A*4b
$GNRMC,104007,A,5800.792618,N,05616.849823,E,,, 260325,,,A*4a
$GNRMC,104008,A,5800.792618,N,05616.849823,E,,, 260325,,,A*45
$GNRMC,104009,A,5800.792618,N,05616.849823,E,,, 260325,,,A*44
$GNRMC,104010,A,5800.792618,N,05616.849823,E,,, 260325,,,A*4c
$GNRMC,104011,A,5800.792618,N,05616.849823,E,,, 260325,,,A*4d
$GNRMC,104012,A,5800.792618,N,05616.849823,E,,, 260325,,,A*4e
$GNRMC,104013,A,5800.792618,N,05616.849823,E,,, 260325,,,A*4f
$GNRMC,104014,A,5800.792618,N,05616.849823,E,,, 260325,,,A*48
$GNRMC,104015,A,5800.792618,N,05616.849823,E,,, 260325,,,A*49
$GNRMC,104016,A,5800.792618,N,05616.849823,E,,, 260325,,,A*4a
$GNRMC,104017,A,5800.792160,N,05616.850281,E,,, 260325,,,A*49
$GNRMC,104018,A,5800.792160,N,05616.850281,E,,, 260325,,,A*46
$GNRMC,104019,A,5800.792160,N,05616.850281,E,,, 260325,,,A*47
$GNRMC,104020,A,5800.792160,N,05616.850281,E,,, 260325,,,A*4d
$GNRMC,104021,A,5800.792160,N,05616.850281,E,,, 260325,,,A*4c
$GNRMC,104022,A,5800.792160,N,05616.850281,E,,, 260325,,,A*4f
$GNRMC,104023,A,5800.792160,N,05616.850281,E,,, 260325,,,A*4e
$GNRMC,104024,A,5800.792160,N,05616.850281,E,,, 260325,,,A*49
$GNRMC,104025,A,5800.792160,N,05616.850281,E,,, 260325,,,A*48
$GNRMC,104026,A,5800.792160,N,05616.850281,E,,, 260325,,,A*4b
$GNRMC,104027,A,5800.792160,N,05616.850281,E,,, 260325,,,A*4a
$GNRMC,104028,A,5800.792160,N,05616.850281,E,,, 260325,,,A*45
$GNRMC,104029,A,5800.791702,N,05616.850281,E,,, 260325,,,A*45
$GNRMC,104030,A,5800.791702,N,05616.850281,E,,, 260325,,,A*4d
$GNRMC,104031,A,5800.791702,N,05616.850281,E,,, 260325,,,A*4c
$GNRMC,104032,A,5800.791702,N,05616.850281,E,,, 260325,,,A*4f
$GNRMC,104033,A,5800.791702,N,05616.850281,E,,, 260325,,,A*4e
$GNRMC,104034,A,5800.791702,N,05616.850281,E,,, 260325,,,A*49
$GNRMC,104035,A,5800.791702,N,05616.850281,E,,, 260325,,,A*48
$GNRMC,104036,A,5800.791702,N,05616.850281,E,,, 260325,,,A*4b
$GNRMC,104037,A,5800.791702,N,05616.850281,E,,, 260325,,,A*4a
$GNRMC,104038,A,5800.791702,N,05616.850281,E,,, 260325,,,A*45
$GNRMC,104039,A,5800.791702,N,05616.850281,E,,, 260325,,,A*44
$GNRMC,104040,A,5800.791702,N,05616.850281,E,,, 260325,,,A*4a
$GNRMC,104041,A,5800.791702,N,05616.850281,E,,, 260325,,,A*4b
$GNRMC,104042,A,5800.791702,N,05616.850281,E,,, 260325,,,A*48
$GNRMC,104043,A,5800.791702,N,05616.850281,E,,, 260325,,,A*49
$GNRMC,104044,A,5800.791702,N,05616.849823,E,,, 260325,,,A*44
$GNRMC,104045,A,5800.791702,N,05616.849823,E,,, 260325,,,A*45
$GNRMC,104046,A,5800.791702,N,05616.849823,E,,, 260325,,,A*46
$GNRMC,104047,A,5800.791702,N,05616.849823,E,,, 260325,,,A*47
$GNRMC,104048,A,5800.791702,N,05616.849823,E,,, 260325,,,A*48
$GNRMC,104049,A,5800.791702,N,05616.849823,E,,, 260325,,,A*49
$GNRMC,104050,A,5800.791702,N,05616.849823,E,,, 260325,,,A*41
$GNRMC,104051,A,5800.791702,N,05616.849594,E,,, 260325,,,A*41
$GNRMC,104052,A,5800.791702,N,05616.849594,E,,, 260325,,,A*42
$GNRMC,104053,A,5800.791702,N,05616.849594,E,,, 260325,,,A*43
$GNRMC,104054,A,5800.791702,N,05616.849594,E,,, 260325,,,A*44
$GNRMC,104055,A,5800.791702,N,05616.849594,E,,, 260325,,,A*45
$GNRMC,104056,A,5800.791702,N,05616.849594,E,,, 260325,,,A*46
$GNRMC,104057,A,5800.791702,N,05616.849594,E,,, 260325,,,A*47
$GNRMC,104058,A,5800.791702,N,05616.849594,E,,, 260325,,,A*48
$GNRMC,104059,A,5800.791702,N,05616.849594,E,,, 260325,,,A*49
$GNRMC,104100,A,5800.791702,N,05616.849594,E,,, 260325,,,A*44
$GNRMC,104101,A,5800.791702,N,05616.849594,E,,, 260325,,,A*45
$GNRMC,104102,A,5800.791702,N,05616.849594,E,,, 260325,,,A*46
$GNRMC,104103,A,5800.791702,N,05616.849594,E,,, 260325,,,A*47
$GNRMC,104104,A,5800.791702,N,05616.849594,E,,, 260325,,,A*40
$GNRMC,104105,A,5800.791702,N,05616.849594,E,,, 260325,,,A*41
$GNRMC,104106,A,5800.791702,N,05616.849594,E,,, 260325,,,A*42
$GNRMC,104107,A,5800.791702,N,05616.849594,E,,, 260325,,,A*43
$GNRMC,104108,A,5800.791702,N,05616.849136,E,,, 260325,,,A*40
$GNRMC,104109,A,5800.791702,N,05616.849136,E,,, 260325,,,A*41
$GNRMC,104110,A,5800.791702,N,05616.849136,E,,, 260325,,,A*49
$GNRMC,104111,A,5800.791702,N,05616.848679,E,,, 260325,,,A*45
$GNRMC,104112,A,5800.791702,N,05616.848679,E,,, 260325,,,A*46
$GNRMC,104113,A,5800.791702,N,05616.848679,E,,, 260325,,,A*47
$GNRMC,104114,A,5800.791702,N,05616.848679,E,,, 260325,,,A*40
$GNRMC,104115,A,5800.791702,N,05616.848679,E,,, 260325,,,A*41
$GNRMC,104116,A,5800.791702,N,05616.848450,E,,, 260325,,,A*4b
$GNRMC,104117,A,5800.791702,N,05616.848450,E,,, 260325,,,A*4a
$GNRMC,104118,A,5800.791702,N,05616.848450,E,,, 260325,,,A*45
$GNRMC,104119,A,5800.791702,N,05616.848450,E,,, 260325,,,A*44
$GNRMC,104120,A,5800.791702,N,05616.847992,E,,, 260325,,,A*42
$GNRMC,104121,A,5800.791702,N,05616.847992,E,,, 260325,,,A*43
$GNRMC,104122,A,5800.791702,N,05616.847534,E,,, 260325,,,A*40
$GNRMC,104123,A,5800.792160,N,05616.847534,E,,, 260325,,,A*40
$GNRMC,104124,A,5800.792160,N,05616.847534,E,,, 260325,,,A*47
$GNRMC,104125,A,5800.792160,N,05616.847305,E,,, 260325,,,A*42
$GNRMC,104126,A,5800.792160,N,05616.847305,E,,, 260325,,,A*41
$GNRMC,104127,A,5800.792160,N,05616.847305,E,,, 260325,,,A*40
$GNRMC,104128,A,5800.792160,N,05616.846848,E,,, 260325,,,A*4c
$GNRMC,104129,A,5800.792160,N,05616.846848,E,,, 260325,,,A*4d
$GNRMC,104130,A,5800.792160,N,05616.846848,E,,, 260325,,,A*45
$GNRMC,104131,A,5800.792160,N,05616.846848,E,,, 260325,,,A*44
$GNRMC,104132,A,5800.792160,N,05616.846848,E,,, 260325,,,A*47
$GNRMC,104133,A,5800.792160,N,05616.846848,E,,, 260325,,,A*46
$GNRMC,104134,A,5800.792160,N,05616.846848,E,,, 260325,,,A*41
$GNRMC,104135,A,5800.792160,N,05616.846848,E,,, 260325,,,A*40
$GNRMC,104136,A,5800.792160,N,05616.846848,E,,, 260325,,,A*43
$GNRMC,104137,A,5800.792160,N,05616.846848,E,,, 260325,,,A*42
$GNRMC,104138,A,5800.792160,N,05616.846848,E,,, 260325,,,A*4d
$GNRMC,104139,A,5800.792160,N,05616.846848,E,,, 260325,,,A*4c
$GNRMC,104140,A,5800.792160,N,05616.846848,E,,, 260325,,,A*42
$GNRMC,104141,A,5800.792160,N,05616.846848,E,,, 260325,,,A*43
$GNRMC,104142,A,5800.792160,N,05616.846848,E,,, 260325,,,A*40
$GNRMC,104143,A,5800.792160,N,05616.846848,E,,, 260325,,,A*41
$GNRMC,104144,A,5800.792160,N,05616.846848,E,,, 260325,,,A*46
$GNRMC,104145,A,5800.792160,N,05616.846848,E,,, 260325,,,A*47
$GNRMC,104146,A,5800.792160,N,05616.846848,E,,, 260325,,,A*44
$GNRMC,104147,A,5800.792618,N,05616.846848,E,,, 260325,,,A*4d
$GNRMC,104148,A,5800.792618,N,05616.846848,E,,, 260325,,,A*42
$GNRMC,104149,A,5800.792618,N,05616.846848,E,,, 260325,,,A*43
$GNRMC,104150,A,5800.792618,N,05616.846848,E,,, 260325,,,A*4b
$GNRMC,104151,A,5800.792618,N,05616.846848,E,,, 260325,,,A*4a
$GNRMC,104152,A,5800.792618,N,05616.846848,E,,, 260325,,,A*49
$GNRMC,104153,A,5800.792618,N,05616.846848,E,,, 260325,,,A*48
$GNRMC,104154,A,5800.792618,N,05616.846848,E,,, 260325,,,A*4f
$GNRMC,104155,A,5800.792618,N,05616.846848,E,,, 260325,,,A*4e
$GNRMC,104156,A,5800.792618,N,05616.846848,E,,, 260325,,,A*4d
$GNRMC,104157,A,5800.792618,N,05616.846848,E,,, 260325,,,A*4c
$GNRMC,104158,A,5800.792618,N,05616.846848,E,,, 260325,,,A*43
$GNRMC,104159,A,5800.792618,N,05616.846848,E,,, 260325,,,A*42
$GNRMC,104200,A,5800.792618,N,05616.846848,E,,, 260325,,,A*4d
$GNRMC,104201,A,5800.792618,N,05616.846848,E,,, 260325,,,A*4c
$GNRMC,104202,A,5800.792618,N,05616.846848,E,,, 260325,,,A*4f
$GNRMC,104203,A,5800.792618,N,05616.846848,E,,, 260325,,,A*4e
$GNRMC,104204,A,5800.792618,N,05616.846848,E,,, 260325,,,A*49
$GNRMC,104205,A,5800.792618,N,05616.846848,E,,, 260325,,,A*48
$GNRMC,104206,A,5800.792618,N,05616.846848,E,,, 260325,,,A*4b
$GNRMC,104207,A,5800.792618,N,05616.846848,E,,, 260325,,,A*4a
$GNRMC,104208,A,5800.792618,N,05616.846848,E,,, 260325,,,A*45
$GNRMC,104209,A,5800.792618,N,05616.846848,E,,, 260325,,,A*44
$GNRMC,104210,A,5800.792618,N,05616.846390,E,,, 260325,,,A*42
$GNRMC,104211,A,5800.792618,N,05616.846390,E,,, 260325,,,A*43
$GNRMC,104212,A,5800.792618,N,05616.846390,E,,, 260325,,,A*40
$GNRMC,104213,A,5800.792618,N,05616.846390,E,,, 260325,,,A*41
$GNRMC,104214,A,5800.792618,N,05616.846390,E,,, 260325,,,A*46
$GNRMC,104215,A,5800.792618,N,05616.846390,E,,, 260325,,,A*47
$GNRMC,104216,A,5800.792618,N,05616.846390,E,,, 260325,,,A*44
$GNRMC,104217,A,5800.792160,N,05616.846390,E,,, 260325,,,A*4d
$GNRMC,104218,A,5800.792160,N,05616.846390,E,,, 260325,,,A*42
$GNRMC,104219,A,5800.792160,N,05616.846161,E,,, 260325,,,A*4f
$GNRMC,104220,A,5800.792160,N,05616.846161,E,,, 260325,,,A*45
$GNRMC,104221,A,5800.792160,N,05616.846161,E,,, 260325,,,A*44
$GNRMC,104222,A,5800.792160,N,05616.846161,E,,, 260325,,,A*47
$GNRMC,104223,A,5800.792160,N,05616.846161,E,,, 260325,,,A*46
$GNRMC,104224,A,5800.792160,N,05616.846161,E,,, 260325,,,A*41
$GNRMC,104225,A,5800.792160,N,05616.845703,E,,, 260325,,,A*41
$GNRMC,104226,A,5800.792160,N,05616.845703,E,,, 260325,,,A*42
$GNRMC,104227,A,5800.792160,N,05616.845703,E,,, 260325,,,A*43
$GNRMC,104228,A,5800.792160,N,05616.845703,E,,, 260325,,,A*4c
$GNRMC,104229,A,5800.792160,N,05616.845703,E,,, 260325,,,A*4d
$GNRMC,104230,A,5800.792160,N,05616.845703,E,,, 260325,,,A*45
$GNRMC,104231,A,5800.792160,N,05616.845703,E,,, 260325,,,A*44
$GNRMC,104232,A,5800.792160,N,05616.845245,E,,, 260325,,,A*40
$GNRMC,104233,A,5800.792160,N,05616.845245,E,,, 260325,,,A*41
$GNRMC,104234,A,5800.792160,N,05616.845245,E,,, 260325,,,A*46
$GNRMC,104235,A,5800.791702,N,05616.845245,E,,, 260325,,,A*46
$GNRMC,104236,A,5800.791702,N,05616.845245,E,,, 260325,,,A*45
$GNRMC,104237,A,5800.791702,N,05616.845245,E,,, 260325,,,A*44
$GNRMC,104238,A,5800.791702,N,05616.845245,E,,, 260325,,,A*4b
$GNRMC,104239,A,5800.791702,N,05616.845245,E,,, 260325,,,A*4a
$GNRMC,104240,A,5800.791702,N,05616.845245,E,,, 260325,,,A*44
$GNRMC,104241,A,5800.791702,N,05616.845245,E,,, 260325,,,A*45
$GNRMC,104242,A,5800.791702,N,05616.845245,E,,, 260325,,,A*46
$GNRMC,104243,A,5800.791702,N,05616.845016,E,,, 260325,,,A*43
$GNRMC,104244,A,5800.792160,N,05616.845016,E,,, 260325,,,A*45
$GNRMC,104245,A,5800.792160,N,05616.845016,E,,, 260325,,,A*44
$GNRMC,104246,A,5800.792160,N,05616.845016,E,,, 260325,,,A*47
$GNRMC,104247,A,5800.792160,N,05616.845016,E,,, 260325,,,A*46
$GNRMC,104248,A,5800.792160,N,05616.845016,E,,, 260325,,,A*49
$GNRMC,104249,A,5800.792160,N,05616.845016,E,,, 260325,,,A*48
$GNRMC,104250,A,5800.792160,N,05616.845016,E,,, 260325,,,A*40
$GNRMC,104251,A,5800.792160,N,05616.845016,E,,, 260325,,,A*41
$GNRMC,104252,A,5800.792160,N,05616.845016,E,,, 260325,,,A*42
$GNRMC,104253,A,5800.792160,N,05616.845016,E,,, 260325,,,A*43
$GNRMC,104254,A,5800.792160,N,05616.845016,E,,, 260325,,,A*44
$GNRMC,104255,A,5800.792160,N,05616.845016,E,,, 260325,,,A*45
$GNRMC,104256,A,5800.792160,N,05616.845016,E,,, 260325,,,A*46
$GNRMC,104257,A,5800.792160,N,05616.845016,E,,, 260325,,,A*47
$GNRMC,104258,A,5800.792160,N,05616.844559,E,,, 260325,,,A*47
$GNRMC,104259,A,5800.792160,N,05616.844559,E,,, 260325,,,A*46
$GNRMC,104300,A,5800.792618,N,05616.844559,E,,, 260325,,,A*43
$GNRMC,104301,A,5800.792618,N,05616.844559,E,,, 260325,,,A*42
$GNRMC,104302,A,5800.792618,N,05616.844559,E,,, 260325,,,A*41
$GNRMC,104303,A,5800.792618,N,05616.844559,E,,, 260325,,,A*40
$GNRMC,104304,A,5800.792618,N,05616.844559,E,,, 260325,,,A*47
$GNRMC,104305,A,5800.792618,N,05616.844559,E,,, 260325,,,A*46
$GNRMC,104306,A,5800.792618,N,05616.844559,E,,, 260325,,,A*45
$GNRMC,104307,A,5800.792618,N,05616.844559,E,,, 260325,,,A*44
$GNRMC,104308,A,5800.792618,N,05616.844559,E,,, 260325,,,A*4b
$GNRMC,104309,A,5800.792618,N,05616.844559,E,,, 260325,,,A*4a
$GNRMC,104310,A,5800.792618,N,05616.844559,E,,, 260325,,,A*42
$GNRMC,104311,A,5800.792618,N,05616.844559,E,,, 260325,,,A*43
$GNRMC,104312,A,5800.792618,N,05616.844559,E,,, 260325,,,A*40
$GNRMC,104313,A,5800.792618,N,05616.844559,E,,, 260325,,,A*41
$GNRMC,104314,A,5800.792618,N,05616.844559,E,,, 260325,,,A*46
$GNRMC,104315,A,5800.792618,N,05616.844559,E,,, 260325,,,A*47
$GNRMC,104316,A,5800.792618,N,05616.844559,E,,, 260325,,,A*44
$GNRMC,104317,A,5800.792618,N,05616.844559,E,,, 260325,,,A*45
$GNRMC,104318,A,5800.792618,N,05616.844559,E,,, 260325,,,A*4a
$GNRMC,104319,A,5800.792618,N,05616.844559,E,,, 260325,,,A*4b
$GNRMC,104320,A,5800.792618,N,05616.845016,E,,, 260325,,,A*4e
$GNRMC,104321,A,5800.792618,N,05616.845016,E,,, 260325,,,A*4f
$GNRMC,104322,A,5800.792618,N,05616.845016,E,,, 260325,,,A*4c
$GNRMC,104323,A,5800.792618,N,05616.845016,E,,, 260325,,,A*4d
$GNRMC,104324,A,5800.792618,N,05616.845016,E,,, 260325,,,A*4a
$GNRMC,104325,A,5800.792618,N,05616.845016,E,,, 260325,,,A*4b
$GNRMC,104326,A,5800.792618,N,05616.845016,E,,, 260325,,,A*48
$GNRMC,104327,A,5800.792618,N,05616.845016,E,,, 260325,,,A*49
$GNRMC,104328,A,5800.792847,N,05616.845016,E,,, 260325,,,A*42
$GNRMC,104329,A,5800.792847,N,05616.845016,E,,, 260325,,,A*43
$GNRMC,104330,A,5800.792847,N,05616.845016,E,,, 260325,,,A*4b
$GNRMC,104331,A,5800.792847,N,05616.845016,E,,, 260325,,,A*4a
$GNRMC,104332,A,5800.792847,N,05616.845016,E,,, 260325,,,A*49
$GNRMC,104333,A,5800.792847,N,05616.845245,E,,, 260325,,,A*4c
$GNRMC,104334,A,5800.792847,N,05616.845245,E,,, 260325,,,A*4b
$GNRMC,104335,A,5800.792847,N,05616.845245,E,,, 260325,,,A*4a
$GNRMC,104336,A,5800.792847,N,05616.845245,E,,, 260325,,,A*49
$GNRMC,104337,A,5800.792847,N,05616.845245,E,,, 260325,,,A*48
$GNRMC,104338,A,5800.792847,N,05616.845245,E,,, 260325,,,A*47
$GNRMC,104339,A,5800.792847,N,05616.845245,E,,, 260325,,,A*46
$GNRMC,104340,A,5800.792847,N,05616.845245,E,,, 260325,,,A*48
$GNRMC,104341,A,5800.793304,N,05616.845703,E,,, 260325,,,A*43
$GNRMC,104342,A,5800.793304,N,05616.845703,E,,, 260325,,,A*40
$GNRMC,104343,A,5800.793304,N,05616.845703,E,,, 260325,,,A*41
$GNRMC,104344,A,5800.793304,N,05616.845703,E,,, 260325,,,A*46
$GNRMC,104345,A,5800.793304,N,05616.846161,E,,, 260325,,,A*46
$GNRMC,104346,A,5800.793304,N,05616.846161,E,,, 260325,,,A*45
$GNRMC,104347,A,5800.793304,N,05616.846161,E,,, 260325,,,A*44
$GNRMC,104348,A,5800.793304,N,05616.846390,E,,, 260325,,,A*47
$GNRMC,104349,A,5800.793304,N,05616.846390,E,,, 260325,,,A*46
$GNRMC,104350,A,5800.793304,N,05616.846390,E,,, 260325,,,A*4e
$GNRMC,104351,A,5800.793304,N,05616.846848,E,,, 260325,,,A*41
$GNRMC,104352,A,5800.793304,N,05616.846848,E,,, 260325,,,A*42
$GNRMC,104353,A,5800.793304,N,05616.846848,E,,, 260325,,,A*43
$GNRMC,104354,A,5800.793304,N,05616.846848,E,,, 260325,,,A*44
$GNRMC,104355,A,5800.793304,N,05616.846848,E,,, 260325,,,A*45
$GNRMC,104356,A,5800.793304,N,05616.847305,E,,, 260325,,,A*45
$GNRMC,104357,A,5800.793304,N,05616.847305,E,,, 260325,,,A*44
$GNRMC,104358,A,5800.793304,N,05616.847305,E,,, 260325,,,A*4b
$GNRMC,104359,A,5800.793304,N,05616.847305,E,,, 260325,,,A*4a
$GNRMC,104400,A,5800.793304,N,05616.847534,E,,, 260325,,,A*45
$GNRMC,104401,A,5800.793304,N,05616.847534,E,,, 260325,,,A*44
$GNRMC,104402,A,5800.793304,N,05616.847534,E,,, 260325,,,A*47
$GNRMC,104403,A,5800.793304,N,05616.847534,E,,, 260325,,,A*46
$GNRMC,104404,A,5800.793304,N,05616.847992,E,,, 260325,,,A*41
$GNRMC,104405,A,5800.793304,N,05616.847992,E,,, 260325,,,A*40
$GNRMC,104406,A,5800.793304,N,05616.847992,E,,, 260325,,,A*43
$GNRMC,104407,A,5800.793304,N,05616.848450,E,,, 260325,,,A*4e
$GNRMC,104408,A,5800.793304,N,05616.848450,E,,, 260325,,,A*41
$GNRMC,104409,A,5800.793304,N,05616.848450,E,,, 260325,,,A*40
$GNRMC,104410,A,5800.793304,N,05616.848679,E,,, 260325,,,A*41
$GNRMC,104411,A,5800.793304,N,05616.848679,E,,, 260325,,,A*40
$GNRMC,104412,A,5800.793304,N,05616.848679,E,,, 260325,,,A*43
$GNRMC,104413,A,5800.793304,N,05616.848679,E,,, 260325,,,A*42
$GNRMC,104414,A,5800.793304,N,05616.848679,E,,, 260325,,,A*45
$GNRMC,104415,A,5800.793304,N,05616.849136,E,,, 260325,,,A*49
$GNRMC,104416,A,5800.793304,N,05616.849136,E,,, 260325,,,A*4a
$GNRMC,104417,A,5800.793304,N,05616.849136,E,,, 260325,,,A*4b
$GNRMC,104418,A,5800.793304,N,05616.849136,E,,, 260325,,,A*44
$GNRMC,104419,A,5800.793304,N,05616.849136,E,,, 260325,,,A*45
$GNRMC,104420,A,5800.793304,N,05616.849136,E,,, 260325,,,A*4f
$GNRMC,104421,A,5800.793304,N,05616.849136,E,,, 260325,,,A*4e
$GNRMC,104422,A,5800.793304,N,05616.849136,E,,, 260325,,,A*4d
$GNRMC,104423,A,5800.793304,N,05616.849136,E,,, 260325,,,A*4c
$GNRMC,104424,A,5800.793304,N,05616.849136,E,,, 260325,,,A*4b
$GNRMC,104425,A,5800.793304,N,05616.849136,E,,, 260325,,,A*4a
$GNRMC,104426,A,5800.793304,N,05616.849136,E,,, 260325,,,A*49
$GNRMC,104427,A,5800.793304,N,05616.849136,E,,, 260325,,,A*48
$GNRMC,104428,A,5800.793304,N,05616.849136,E,,, 260325,,,A*47
$GNRMC,104429,A,5800.793304,N,05616.849136,E,,, 260325,,,A*46
$GNRMC,104430,A,5800.793304,N,05616.849136,E,,, 260325,,,A*4e
$GNRMC,104431,A,5800.793304,N,05616.849136,E,,, 260325,,,A*4f
$GNRMC,104432,A,5800.792847,N,05616.849136,E,,, 260325,,,A*41
$GNRMC,104433,A,5800.792847,N,05616.849136,E,,, 260325,,,A*40
$GNRMC,104434,A,5800.792847,N,05616.849136,E,,, 260325,,,A*47
$GNRMC,104435,A,5800.792847,N,05616.849594,E,,, 260325,,,A*4a
$GNRMC,104436,A,5800.792847,N,05616.849594,E,,, 260325,,,A*49
$GNRMC,104437,A,5800.792847,N,05616.849594,E,,, 260325,,,A*48
$GNRMC,104438,A,5800.792847,N,05616.849594,E,,, 260325,,,A*47
$GNRMC,104439,A,5800.792847,N,05616.849594,E,,, 260325,,,A*46
$GNRMC,104440,A,5800.792847,N,05616.849136,E,,, 260325,,,A*44
$GNRMC,104441,A,5800.792847,N,05616.849136,E,,, 260325,,,A*45
$GNRMC,104442,A,5800.792847,N,05616.849136,E,,, 260325,,,A*46
$GNRMC,104443,A,5800.792847,N,05616.849136,E,,, 260325,,,A*47
