$GNRMC,094502,A,5800.125656,N,05617.560272,E,,, 200325,,,A*4d
$GNRMC,094503,A,5800.132751,N,05617.582245,E,,, 200325,,,A*44
$GNRMC,094504,A,5800.133209,N,05617.582703,E,,, 200325,,,A*4d
$GNRMC,094505,A,5800.133209,N,05617.582245,E,,, 200325,,,A*4b
$GNRMC,094506,A,5800.134354,N,05617.582932,E,,, 200325,,,A*4d
$GNRMC,094507,A,5800.135269,N,05617.583847,E,,, 200325,,,A*40
$GNRMC,094508,A,5800.135498,N,05617.584534,E,,, 200325,,,A*49
$GNRMC,094509,A,5800.135956,N,05617.584991,E,,, 200325,,,A*44
$GNRMC,094510,A,5800.136414,N,05617.584991,E,,, 200325,,,A*44
$GNRMC,094511,A,5800.136642,N,05617.585220,E,,, 200325,,,A*44
$GNRMC,094512,A,5800.137100,N,05617.585678,E,,, 200325,,,A*4e
$GNRMC,094513,A,5800.137100,N,05617.585678,E,,, 200325,,,A*4f
$GNRMC,094514,A,5800.137558,N,05617.585678,E,,, 200325,,,A*41
$GNRMC,094515,A,5800.137558,N,05617.585678,E,,, 200325,,,A*40
$GNRMC,094516,A,5800.137787,N,05617.585678,E,,, 200325,,,A*43
$GNRMC,094517,A,5800.138245,N,05617.585678,E,,, 200325,,,A*46
$GNRMC,094518,A,5800.138245,N,05617.585678,E,,, 200325,,,A*49
$GNRMC,094519,A,5800.138702,N,05617.585678,E,,, 200325,,,A*4e
$GNRMC,094520,A,5800.138702,N,05617.585678,E,,, 200325,,,A*44
$GNRMC,094521,A,5800.138702,N,05617.585678,E,,, 200325,,,A*45
$GNRMC,094522,A,5800.138931,N,05617.585678,E,,, 200325,,,A*48
$GNRMC,094523,A,5800.138931,N,05617.585678,E,,, 200325,,,A*49
$GNRMC,094524,A,5800.139389,N,05617.585678,E,,, 200325,,,A*46
$GNRMC,094525,A,5800.139389,N,05617.585678,E,,, 200325,,,A*47
$GNRMC,094526,A,5800.139847,N,05617.585678,E,,, 200325,,,A*4d
$GNRMC,094527,A,5800.139847,N,05617.585678,E,,, 200325,,,A*4c
$GNRMC,094528,A,5800.139847,N,05617.585678,E,,, 200325,,,A*43
$GNRMC,094529,A,5800.140076,N,05617.585678,E,,, 200325,,,A*46
$GNRMC,094530,A,5800.140076,N,05617.585678,E,,, 200325,,,A*4e
$GNRMC,094531,A,5800.140076,N,05617.585678,E,,, 200325,,,A*4f
$GNRMC,094532,A,5800.140076,N,05617.585220,E,,, 200325,,,A*45
$GNRMC,094533,A,5800.140533,N,05617.585220,E,,, 200325,,,A*40
$GNRMC,094534,A,5800.140533,N,05617.585220,E,,, 200325,,,A*47
$GNRMC,094535,A,5800.140533,N,05617.585220,E,,, 200325,,,A*46
$GNRMC,094536,A,5800.140533,N,05617.585220,E,,, 200325,,,A*45
$GNRMC,094537,A,5800.140533,N,05617.585678,E,,, 200325,,,A*4d
$GNRMC,094538,A,5800.140076,N,05617.585678,E,,, 200325,,,A*46
$GNRMC,094539,A,5800.140076,N,05617.585678,E,,, 200325,,,A*47
$GNRMC,094540,A,5800.140076,N,05617.585678,E,,, 200325,,,A*49
$GNRMC,094541,A,5800.140076,N,05617.585678,E,,, 200325,,,A*48
$GNRMC,094542,A,5800.140076,N,05617.585220,E,,, 200325,,,A*42
$GNRMC,094543,A,5800.140076,N,05617.585220,E,,, 200325,,,A*43
$GNRMC,094544,A,5800.140076,N,05617.585220,E,,, 200325,,,A*44
$GNRMC,094545,A,5800.140076,N,05617.585220,E,,, 200325,,,A*45
$GNRMC,094546,A,5800.140076,N,05617.585220,E,,, 200325,,,A*46
$GNRMC,094547,A,5800.140076,N,05617.585220,E,,, 200325,,,A*47
$GNRMC,094548,A,5800.139847,N,05617.584991,E,,, 200325,,,A*4c
$GNRMC,094549,A,5800.139847,N,05617.584991,E,,, 200325,,,A*4d
$GNRMC,094550,A,5800.139847,N,05617.584991,E,,, 200325,,,A*45
$GNRMC,094551,A,5800.139847,N,05617.584991,E,,, 200325,,,A*44
$GNRMC,094552,A,5800.139847,N,05617.584991,E,,, 200325,,,A*47
$GNRMC,094553,A,5800.139847,N,05617.584991,E,,, 200325,,,A*46
$GNRMC,094554,A,5800.139847,N,05617.584991,E,,, 200325,,,A*41
$GNRMC,094555,A,5800.139847,N,05617.584991,E,,, 200325,,,A*40
$GNRMC,094556,A,5800.139847,N,05617.584991,E,,, 200325,,,A*43
$GNRMC,094557,A,5800.139847,N,05617.584991,E,,, 200325,,,A*42
$GNRMC,094558,A,5800.139847,N,05617.584991,E,,, 200325,,,A*4d
$GNRMC,094559,A,5800.139847,N,05617.584991,E,,, 200325,,,A*4c
$GNRMC,094600,A,5800.139389,N,05617.584534,E,,, 200325,,,A*49
$GNRMC,094601,A,5800.139389,N,05617.584991,E,,, 200325,,,A*4b
$GNRMC,094602,A,5800.139389,N,05617.584991,E,,, 200325,,,A*48
$GNRMC,094603,A,5800.139389,N,05617.584534,E,,, 200325,,,A*4a
$GNRMC,094604,A,5800.139389,N,05617.584076,E,,, 200325,,,A*4e
$GNRMC,094605,A,5800.139389,N,05617.583847,E,,, 200325,,,A*42
$GNRMC,094606,A,5800.139389,N,05617.582703,E,,, 200325,,,A*4f
$GNRMC,094607,A,5800.139389,N,05617.581100,E,,, 200325,,,A*48
$GNRMC,094608,A,5800.139389,N,05617.579498,E,,, 200325,,,A*44
$GNRMC,094609,A,5800.138931,N,05617.577667,E,,, 200325,,,A*41
$GNRMC,094610,A,5800.138702,N,05617.576065,E,,, 200325,,,A*42
$GNRMC,094611,A,5800.138245,N,05617.575607,E,,, 200325,,,A*44
$GNRMC,094612,A,5800.138245,N,05617.576065,E,,, 200325,,,A*46
$GNRMC,094613,A,5800.138702,N,05617.576523,E,,, 200325,,,A*46
$GNRMC,094614,A,5800.138702,N,05617.576752,E,,, 200325,,,A*45
$GNRMC,094615,A,5800.138931,N,05617.577209,E,,, 200325,,,A*40
$GNRMC,094616,A,5800.138931,N,05617.577209,E,,, 200325,,,A*43
$GNRMC,094617,A,5800.138931,N,05617.577209,E,,, 200325,,,A*42
$GNRMC,094618,A,5800.138702,N,05617.577209,E,,, 200325,,,A*43
$GNRMC,094619,A,5800.138702,N,05617.577209,E,,, 200325,,,A*42
$GNRMC,094620,A,5800.138702,N,05617.576752,E,,, 200325,,,A*42
$GNRMC,094621,A,5800.138702,N,05617.576752,E,,, 200325,,,A*43
$GNRMC,094622,A,5800.138245,N,05617.576523,E,,, 200325,,,A*42
$GNRMC,094623,A,5800.137787,N,05617.576523,E,,, 200325,,,A*47
$GNRMC,094624,A,5800.137100,N,05617.575607,E,,, 200325,,,A*4f
$GNRMC,094625,A,5800.135956,N,05617.575378,E,,, 200325,,,A*4a
$GNRMC,094626,A,5800.134811,N,05617.576065,E,,, 200325,,,A*46
$GNRMC,094627,A,5800.134125,N,05617.577209,E,,, 200325,,,A*40
$GNRMC,094628,A,5800.133209,N,05617.578812,E,,, 200325,,,A*4a
$GNRMC,094629,A,5800.132751,N,05617.579956,E,,, 200325,,,A*42
$GNRMC,094630,A,5800.132751,N,05617.581100,E,,, 200325,,,A*46
$GNRMC,094631,A,5800.133209,N,05617.582245,E,,, 200325,,,A*4f
$GNRMC,094632,A,5800.133209,N,05617.584076,E,,, 200325,,,A*48
$GNRMC,094633,A,5800.133209,N,05617.586823,E,,, 200325,,,A*43
$GNRMC,094634,A,5800.133667,N,05617.590256,E,,, 200325,,,A*47
$GNRMC,094635,A,5800.133667,N,05617.594604,E,,, 200325,,,A*41
$GNRMC,094636,A,5800.134125,N,05617.599182,E,,, 200325,,,A*40
$GNRMC,094637,A,5800.134125,N,05617.603989,E,,, 200325,,,A*42
$GNRMC,094638,A,5800.134354,N,05617.608795,E,,, 200325,,,A*41
$GNRMC,094639,A,5800.134811,N,05617.613373,E,,, 200325,,,A*4c
$GNRMC,094640,A,5800.134811,N,05617.617950,E,,, 200325,,,A*4d
$GNRMC,094641,A,5800.135269,N,05617.622528,E,,, 200325,,,A*4d
$GNRMC,094642,A,5800.135498,N,05617.626648,E,,, 200325,,,A*47
$GNRMC,094643,A,5800.136414,N,05617.631454,E,,, 200325,,,A*48
$GNRMC,094644,A,5800.136642,N,05617.636032,E,,, 200325,,,A*4d
$GNRMC,094645,A,5800.137787,N,05617.640152,E,,, 200325,,,A*43
$GNRMC,094646,A,5800.138245,N,05617.644730,E,,, 200325,,,A*42
$GNRMC,094647,A,5800.138245,N,05617.649765,E,,, 200325,,,A*4e
$GNRMC,094648,A,5800.138245,N,05617.654343,E,,, 200325,,,A*4d
$GNRMC,094649,A,5800.137787,N,05617.658920,E,,, 200325,,,A*4b
$GNRMC,094650,A,5800.137100,N,05617.662354,E,,, 200325,,,A*4a
$GNRMC,094651,A,5800.136414,N,05617.665100,E,,, 200325,,,A*4e
$GNRMC,094652,A,5800.135269,N,05617.666245,E,,, 200325,,,A*43
$GNRMC,094653,A,5800.133209,N,05617.667160,E,,, 200325,,,A*47
$GNRMC,094654,A,5800.131378,N,05617.667847,E,,, 200325,,,A*49
$GNRMC,094655,A,5800.129776,N,05617.668533,E,,, 200325,,,A*4a
$GNRMC,094656,A,5800.127487,N,05617.669449,E,,, 200325,,,A*47
$GNRMC,094657,A,5800.125656,N,05617.670135,E,,, 200325,,,A*4c
$GNRMC,094658,A,5800.123596,N,05617.671967,E,,, 200325,,,A*44
$GNRMC,094659,A,5800.122452,N,05617.674255,E,,, 200325,,,A*42
$GNRMC,094700,A,5800.122223,N,05617.677460,E,,, 200325,,,A*4c
$GNRMC,094701,A,5800.121765,N,05617.680893,E,,, 200325,,,A*41
$GNRMC,094702,A,5800.121307,N,05617.684784,E,,, 200325,,,A*4f
$GNRMC,094703,A,5800.121307,N,05617.688675,E,,, 200325,,,A*4d
$GNRMC,094704,A,5800.121765,N,05617.692108,E,,, 200325,,,A*4c
$GNRMC,094705,A,5800.122223,N,05617.695084,E,,, 200325,,,A*4b
$GNRMC,094706,A,5800.122452,N,05617.696686,E,,, 200325,,,A*4f
$GNRMC,094707,A,5800.122452,N,05617.698517,E,,, 200325,,,A*4b
$GNRMC,094708,A,5800.122223,N,05617.699661,E,,, 200325,,,A*47
$GNRMC,094709,A,5800.122223,N,05617.701263,E,,, 200325,,,A*40
$GNRMC,094710,A,5800.122223,N,05617.702408,E,,, 200325,,,A*40
$GNRMC,094711,A,5800.122223,N,05617.702866,E,,, 200325,,,A*45
$GNRMC,094712,A,5800.122223,N,05617.703094,E,,, 200325,,,A*42
$GNRMC,094713,A,5800.122223,N,05617.704010,E,,, 200325,,,A*48
$GNRMC,094714,A,5800.122452,N,05617.704697,E,,, 200325,,,A*46
$GNRMC,094715,A,5800.122452,N,05617.705383,E,,, 200325,,,A*46
$GNRMC,094716,A,5800.123367,N,05617.707443,E,,, 200325,,,A*4c
$GNRMC,094717,A,5800.124741,N,05617.708817,E,,, 200325,,,A*48
$GNRMC,094718,A,5800.126801,N,05617.709732,E,,, 200325,,,A*47
$GNRMC,094719,A,5800.129089,N,05617.710190,E,,, 200325,,,A*47
$GNRMC,094720,A,5800.132523,N,05617.710190,E,,, 200325,,,A*42
$GNRMC,094721,A,5800.135956,N,05617.710419,E,,, 200325,,,A*4e
$GNRMC,094722,A,5800.140076,N,05617.710876,E,,, 200325,,,A*41
$GNRMC,094723,A,5800.144424,N,05617.710876,E,,, 200325,,,A*47
$GNRMC,094724,A,5800.149002,N,05617.710876,E,,, 200325,,,A*4d
$GNRMC,094725,A,5800.154037,N,05617.710876,E,,, 200325,,,A*46
$GNRMC,094726,A,5800.159302,N,05617.711334,E,,, 200325,,,A*41
$GNRMC,094727,A,5800.164337,N,05617.711334,E,,, 200325,,,A*48
$GNRMC,094728,A,5800.169373,N,05617.710876,E,,, 200325,,,A*46
$GNRMC,094729,A,5800.174637,N,05617.710419,E,,, 200325,,,A*4b
$GNRMC,094730,A,5800.178986,N,05617.709732,E,,, 200325,,,A*48
$GNRMC,094731,A,5800.182877,N,05617.708817,E,,, 200325,,,A*4a
$GNRMC,094732,A,5800.186310,N,05617.708130,E,,, 200325,,,A*4b
$GNRMC,094733,A,5800.188599,N,05617.705841,E,,, 200325,,,A*41
$GNRMC,094734,A,5800.191345,N,05617.704010,E,,, 200325,,,A*44
$GNRMC,094735,A,5800.194321,N,05617.701721,E,,, 200325,,,A*42
$GNRMC,094736,A,5800.197754,N,05617.698975,E,,, 200325,,,A*4a
$GNRMC,094737,A,5800.200500,N,05617.696686,E,,, 200325,,,A*48
$GNRMC,094738,A,5800.203476,N,05617.693939,E,,, 200325,,,A*4a
$GNRMC,094739,A,5800.206223,N,05617.691193,E,,, 200325,,,A*42
$GNRMC,094740,A,5800.208511,N,05617.688675,E,,, 200325,,,A*43
$GNRMC,094741,A,5800.211258,N,05617.686386,E,,, 200325,,,A*47
$GNRMC,094742,A,5800.214233,N,05617.683182,E,,, 200325,,,A*4f
$GNRMC,094743,A,5800.217667,N,05617.679749,E,,, 200325,,,A*4c
$GNRMC,094744,A,5800.221100,N,05617.676315,E,,, 200325,,,A*4a
$GNRMC,094745,A,5800.225449,N,05617.673111,E,,, 200325,,,A*44
$GNRMC,094746,A,5800.229568,N,05617.669449,E,,, 200325,,,A*4a
$GNRMC,094747,A,5800.233917,N,05617.665558,E,,, 200325,,,A*49
$GNRMC,094748,A,5800.238495,N,05617.661667,E,,, 200325,,,A*41
$GNRMC,094749,A,5800.243530,N,05617.657776,E,,, 200325,,,A*46
$GNRMC,094750,A,5800.248337,N,05617.653198,E,,, 200325,,,A*46
$GNRMC,094751,A,5800.253372,N,05617.648621,E,,, 200325,,,A*43
$GNRMC,094752,A,5800.258408,N,05617.644043,E,,, 200325,,,A*4f
$GNRMC,094753,A,5800.263901,N,05617.639465,E,,, 200325,,,A*48
$GNRMC,094754,A,5800.268478,N,05617.635574,E,,, 200325,,,A*4a
$GNRMC,094755,A,5800.272598,N,05617.632141,E,,, 200325,,,A*4a
$GNRMC,094756,A,5800.276489,N,05617.629166,E,,, 200325,,,A*43
$GNRMC,094757,A,5800.279465,N,05617.625961,E,,, 200325,,,A*4c
$GNRMC,094758,A,5800.282669,N,05617.623215,E,,, 200325,,,A*47
$GNRMC,094759,A,5800.286102,N,05617.620239,E,,, 200325,,,A*45
$GNRMC,094800,A,5800.289536,N,05617.617264,E,,, 200325,,,A*46
$GNRMC,094801,A,5800.293655,N,05617.613602,E,,, 200325,,,A*4a
$GNRMC,094802,A,5800.297546,N,05617.609940,E,,, 200325,,,A*4e
$GNRMC,094803,A,5800.301437,N,05617.606506,E,,, 200325,,,A*47
$GNRMC,094804,A,5800.304871,N,05617.603302,E,,, 200325,,,A*4c
$GNRMC,094805,A,5800.307617,N,05617.600555,E,,, 200325,,,A*47
$GNRMC,094806,A,5800.308762,N,05617.597122,E,,, 200325,,,A*41
$GNRMC,094807,A,5800.309219,N,05617.593231,E,,, 200325,,,A*4d
$GNRMC,094808,A,5800.308304,N,05617.589111,E,,, 200325,,,A*44
$GNRMC,094809,A,5800.307159,N,05617.584534,E,,, 200325,,,A*4e
$GNRMC,094810,A,5800.305557,N,05617.578812,E,,, 200325,,,A*44
$GNRMC,094811,A,5800.304184,N,05617.572632,E,,, 200325,,,A*48
$GNRMC,094812,A,5800.302582,N,05617.565308,E,,, 200325,,,A*45
$GNRMC,094813,A,5800.300293,N,05617.557526,E,,, 200325,,,A*4a
$GNRMC,094814,A,5800.298004,N,05617.548828,E,,, 200325,,,A*4c
$GNRMC,094815,A,5800.295715,N,05617.539215,E,,, 200325,,,A*45
$GNRMC,094816,A,5800.293427,N,05617.529144,E,,, 200325,,,A*44
$GNRMC,094817,A,5800.290680,N,05617.519531,E,,, 200325,,,A*4c
$GNRMC,094818,A,5800.288391,N,05617.509918,E,,, 200325,,,A*49
$GNRMC,094819,A,5800.286102,N,05617.501221,E,,, 200325,,,A*47
$GNRMC,094820,A,5800.283813,N,05617.492065,E,,, 200325,,,A*48
$GNRMC,094821,A,5800.281525,N,05617.483139,E,,, 200325,,,A*4b
$GNRMC,094822,A,5800.278778,N,05617.473526,E,,, 200325,,,A*41
$GNRMC,094823,A,5800.276489,N,05617.464600,E,,, 200325,,,A*42
$GNRMC,094824,A,5800.274887,N,05617.457047,E,,, 200325,,,A*40
$GNRMC,094825,A,5800.273743,N,05617.451324,E,,, 200325,,,A*41
$GNRMC,094826,A,5800.272598,N,05617.446289,E,,, 200325,,,A*47
$GNRMC,094827,A,5800.271912,N,05617.441940,E,,, 200325,,,A*42
$GNRMC,094828,A,5800.271454,N,05617.438507,E,,, 200325,,,A*43
$GNRMC,094829,A,5800.270767,N,05617.435989,E,,, 200325,,,A*47
$GNRMC,094830,A,5800.269852,N,05617.433243,E,,, 200325,,,A*45
$GNRMC,094831,A,5800.269165,N,05617.429810,E,,, 200325,,,A*4e
$GNRMC,094832,A,5800.268021,N,05617.425232,E,,, 200325,,,A*4b
$GNRMC,094833,A,5800.267334,N,05617.420197,E,,, 200325,,,A*4b
$GNRMC,094834,A,5800.265732,N,05617.414474,E,,, 200325,,,A*43
$GNRMC,094835,A,5800.264130,N,05617.407379,E,,, 200325,,,A*4f
$GNRMC,094836,A,5800.262299,N,05617.399368,E,,, 200325,,,A*4a
$GNRMC,094837,A,5800.260239,N,05617.390900,E,,, 200325,,,A*4e
$GNRMC,094838,A,5800.258408,N,05617.381287,E,,, 200325,,,A*4a
$GNRMC,094839,A,5800.255661,N,05617.371445,E,,, 200325,,,A*4c
$GNRMC,094840,A,5800.253372,N,05617.360916,E,,, 200325,,,A*48
$GNRMC,094841,A,5800.250397,N,05617.349472,E,,, 200325,,,A*45
$GNRMC,094842,A,5800.247650,N,05617.338028,E,,, 200325,,,A*43
$GNRMC,094843,A,5800.244904,N,05617.326813,E,,, 200325,,,A*40
$GNRMC,094844,A,5800.242386,N,05617.315826,E,,, 200325,,,A*47
$GNRMC,094845,A,5800.239639,N,05617.305069,E,,, 200325,,,A*49
$GNRMC,094846,A,5800.236893,N,05617.294312,E,,, 200325,,,A*4d
$GNRMC,094847,A,5800.234146,N,05617.284241,E,,, 200325,,,A*49
$GNRMC,094848,A,5800.231857,N,05617.274170,E,,, 200325,,,A*44
$GNRMC,094849,A,5800.229568,N,05617.265015,E,,, 200325,,,A*4f
$GNRMC,094850,A,5800.227737,N,05617.255859,E,,, 200325,,,A*42
$GNRMC,094851,A,5800.226135,N,05617.247849,E,,, 200325,,,A*44
$GNRMC,094852,A,5800.224991,N,05617.240753,E,,, 200325,,,A*40
$GNRMC,094853,A,5800.224304,N,05617.235489,E,,, 200325,,,A*41
$GNRMC,094854,A,5800.223389,N,05617.231140,E,,, 200325,,,A*40
$GNRMC,094855,A,5800.223160,N,05617.229309,E,,, 200325,,,A*42
$GNRMC,094856,A,5800.223160,N,05617.228622,E,,, 200325,,,A*4c
$GNRMC,094857,A,5800.223160,N,05617.228622,E,,, 200325,,,A*4d
$GNRMC,094858,A,5800.223160,N,05617.228622,E,,, 200325,,,A*42
$GNRMC,094859,A,5800.223160,N,05617.228622,E,,, 200325,,,A*43
$GNRMC,094900,A,5800.223160,N,05617.228622,E,,, 200325,,,A*4e
$GNRMC,094901,A,5800.223160,N,05617.228165,E,,, 200325,,,A*4b
$GNRMC,094902,A,5800.223160,N,05617.228165,E,,, 200325,,,A*48
$GNRMC,094903,A,5800.223160,N,05617.228165,E,,, 200325,,,A*49
$GNRMC,094904,A,5800.223160,N,05617.228165,E,,, 200325,,,A*4e
$GNRMC,094905,A,5800.223160,N,05617.228165,E,,, 200325,,,A*4f
$GNRMC,094906,A,5800.223389,N,05617.228165,E,,, 200325,,,A*49
$GNRMC,094907,A,5800.223389,N,05617.227707,E,,, 200325,,,A*45
$GNRMC,094908,A,5800.223389,N,05617.227707,E,,, 200325,,,A*4a
$GNRMC,094909,A,5800.223389,N,05617.227707,E,,, 200325,,,A*4b
$GNRMC,094910,A,5800.223389,N,05617.227707,E,,, 200325,,,A*43
$GNRMC,094911,A,5800.223389,N,05617.227707,E,,, 200325,,,A*42
$GNRMC,094912,A,5800.223160,N,05617.227707,E,,, 200325,,,A*44
$GNRMC,094913,A,5800.223160,N,05617.227707,E,,, 200325,,,A*45
$GNRMC,094914,A,5800.223160,N,05617.227707,E,,, 200325,,,A*42
$GNRMC,094915,A,5800.223160,N,05617.227707,E,,, 200325,,,A*43
$GNRMC,094916,A,5800.223160,N,05617.228165,E,,, 200325,,,A*4d
$GNRMC,094917,A,5800.223160,N,05617.228165,E,,, 200325,,,A*4c
$GNRMC,094918,A,5800.223160,N,05617.228165,E,,, 200325,,,A*43
$GNRMC,094919,A,5800.223160,N,05617.228165,E,,, 200325,,,A*42
$GNRMC,094920,A,5800.223160,N,05617.228165,E,,, 200325,,,A*48
$GNRMC,094921,A,5800.223160,N,05617.228165,E,,, 200325,,,A*49
$GNRMC,094922,A,5800.223160,N,05617.228165,E,,, 200325,,,A*4a
$GNRMC,094923,A,5800.223160,N,05617.228165,E,,, 200325,,,A*4b
$GNRMC,094924,A,5800.223160,N,05617.228165,E,,, 200325,,,A*4c
$GNRMC,094925,A,5800.223160,N,05617.228165,E,,, 200325,,,A*4d
$GNRMC,094926,A,5800.222702,N,05617.228165,E,,, 200325,,,A*4d
$GNRMC,094927,A,5800.222702,N,05617.228165,E,,, 200325,,,A*4c
$GNRMC,094928,A,5800.222702,N,05617.228165,E,,, 200325,,,A*43
$GNRMC,094929,A,5800.222702,N,05617.228165,E,,, 200325,,,A*42
$GNRMC,094930,A,5800.222702,N,05617.228165,E,,, 200325,,,A*4a
$GNRMC,094931,A,5800.222702,N,05617.228165,E,,, 200325,,,A*4b
$GNRMC,094932,A,5800.222702,N,05617.228165,E,,, 200325,,,A*48
$GNRMC,094933,A,5800.222702,N,05617.228165,E,,, 200325,,,A*49
$GNRMC,094934,A,5800.222702,N,05617.228165,E,,, 200325,,,A*4e
$GNRMC,094935,A,5800.222702,N,05617.228165,E,,, 200325,,,A*4f
$GNRMC,094936,A,5800.222702,N,05617.228165,E,,, 200325,,,A*4c
$GNRMC,094937,A,5800.222702,N,05617.228165,E,,, 200325,,,A*4d
$GNRMC,094938,A,5800.222702,N,05617.228622,E,,, 200325,,,A*46
$GNRMC,094939,A,5800.222702,N,05617.228622,E,,, 200325,,,A*47
$GNRMC,094940,A,5800.222702,N,05617.228622,E,,, 200325,,,A*49
$GNRMC,094941,A,5800.222702,N,05617.228622,E,,, 200325,,,A*48
$GNRMC,094942,A,5800.222702,N,05617.228622,E,,, 200325,,,A*4b
$GNRMC,094943,A,5800.222702,N,05617.228622,E,,, 200325,,,A*4a
$GNRMC,094944,A,5800.222702,N,05617.228165,E,,, 200325,,,A*49
$GNRMC,094945,A,5800.222702,N,05617.228165,E,,, 200325,,,A*48
$GNRMC,094946,A,5800.223160,N,05617.228165,E,,, 200325,,,A*48
$GNRMC,094947,A,5800.223160,N,05617.228165,E,,, 200325,,,A*49
$GNRMC,094948,A,5800.222702,N,05617.227478,E,,, 200325,,,A*43
$GNRMC,094949,A,5800.222244,N,05617.225876,E,,, 200325,,,A*45
$GNRMC,094950,A,5800.221558,N,05617.223587,E,,, 200325,,,A*41
$GNRMC,094951,A,5800.220413,N,05617.220383,E,,, 200325,,,A*4e
$GNRMC,094952,A,5800.219269,N,05617.216721,E,,, 200325,,,A*45
$GNRMC,094953,A,5800.217667,N,05617.212830,E,,, 200325,,,A*4b
$GNRMC,094954,A,5800.216522,N,05617.208939,E,,, 200325,,,A*4c
$GNRMC,094955,A,5800.216293,N,05617.205048,E,,, 200325,,,A*42
$GNRMC,094956,A,5800.216522,N,05617.201614,E,,, 200325,,,A*47
$GNRMC,094957,A,5800.217667,N,05617.198639,E,,, 200325,,,A*49
$GNRMC,094958,A,5800.219727,N,05617.197037,E,,, 200325,,,A*4a
$GNRMC,094959,A,5800.222244,N,05617.196579,E,,, 200325,,,A*4d
$GNRMC,095000,A,5800.225906,N,05617.196350,E,,, 200325,,,A*4e
$GNRMC,095001,A,5800.229568,N,05617.195892,E,,, 200325,,,A*41
$GNRMC,095002,A,5800.234146,N,05617.194748,E,,, 200325,,,A*4f
$GNRMC,095003,A,5800.239182,N,05617.194061,E,,, 200325,,,A*47
$GNRMC,095004,A,5800.244675,N,05617.192459,E,,, 200325,,,A*4c
$GNRMC,095005,A,5800.250397,N,05617.190628,E,,, 200325,,,A*47
$GNRMC,095006,A,5800.256805,N,05617.187424,E,,, 200325,,,A*4a
$GNRMC,095007,A,5800.262985,N,05617.183533,E,,, 200325,,,A*46
$GNRMC,095008,A,5800.269623,N,05617.178726,E,,, 200325,,,A*43
$GNRMC,095009,A,5800.276489,N,05617.172775,E,,, 200325,,,A*42
$GNRMC,095010,A,5800.283356,N,05617.166824,E,,, 200325,,,A*4b
$GNRMC,095011,A,5800.290680,N,05617.160187,E,,, 200325,,,A*40
$GNRMC,095012,A,5800.298462,N,05617.153778,E,,, 200325,,,A*43
$GNRMC,095013,A,5800.305557,N,05617.146683,E,,, 200325,,,A*41
$GNRMC,095014,A,5800.313797,N,05617.139816,E,,, 200325,,,A*45
$GNRMC,095015,A,5800.321350,N,05617.132950,E,,, 200325,,,A*42
$GNRMC,095016,A,5800.328674,N,05617.126312,E,,, 200325,,,A*42
$GNRMC,095017,A,5800.335999,N,05617.119904,E,,, 200325,,,A*42
$GNRMC,095018,A,5800.342636,N,05617.114182,E,,, 200325,,,A*4c
$GNRMC,095019,A,5800.348587,N,05617.108459,E,,, 200325,,,A*40
$GNRMC,095020,A,5800.353622,N,05617.102509,E,,, 200325,,,A*42
$GNRMC,095021,A,5800.357971,N,05617.097702,E,,, 200325,,,A*4a
$GNRMC,095022,A,5800.362091,N,05617.093811,E,,, 200325,,,A*41
$GNRMC,095023,A,5800.365295,N,05617.090607,E,,, 200325,,,A*4b
$GNRMC,095024,A,5800.367126,N,05617.088776,E,,, 200325,,,A*4b
$GNRMC,095025,A,5800.367813,N,05617.088089,E,,, 200325,,,A*42
$GNRMC,095026,A,5800.368271,N,05617.087631,E,,, 200325,,,A*4a
$GNRMC,095027,A,5800.367813,N,05617.087631,E,,, 200325,,,A*4a
$GNRMC,095028,A,5800.367813,N,05617.087631,E,,, 200325,,,A*45
$GNRMC,095029,A,5800.367813,N,05617.087631,E,,, 200325,,,A*44
$GNRMC,095030,A,5800.367813,N,05617.087631,E,,, 200325,,,A*4c
$GNRMC,095031,A,5800.367813,N,05617.087631,E,,, 200325,,,A*4d
$GNRMC,095032,A,5800.367813,N,05617.087631,E,,, 200325,,,A*4e
$GNRMC,095033,A,5800.367813,N,05617.087173,E,,, 200325,,,A*4e
$GNRMC,095034,A,5800.367813,N,05617.087173,E,,, 200325,,,A*49
$GNRMC,095035,A,5800.367813,N,05617.087173,E,,, 200325,,,A*48
$GNRMC,095036,A,5800.367813,N,05617.087173,E,,, 200325,,,A*4b
$GNRMC,095037,A,5800.367813,N,05617.087173,E,,, 200325,,,A*4a
$GNRMC,095038,A,5800.367813,N,05617.087173,E,,, 200325,,,A*45
$GNRMC,095039,A,5800.367813,N,05617.087173,E,,, 200325,,,A*44
$GNRMC,095040,A,5800.367813,N,05617.087173,E,,, 200325,,,A*4a
$GNRMC,095041,A,5800.367813,N,05617.087173,E,,, 200325,,,A*4b
$GNRMC,095042,A,5800.367813,N,05617.086945,E,,, 200325,,,A*44
$GNRMC,095043,A,5800.367813,N,05617.086945,E,,, 200325,,,A*45
$GNRMC,095044,A,5800.367813,N,05617.086945,E,,, 200325,,,A*42
$GNRMC,095045,A,5800.367813,N,05617.086945,E,,, 200325,,,A*43
$GNRMC,095046,A,5800.367813,N,05617.086945,E,,, 200325,,,A*40
$GNRMC,095047,A,5800.367813,N,05617.086945,E,,, 200325,,,A*41
$GNRMC,095048,A,5800.367813,N,05617.086945,E,,, 200325,,,A*4e
$GNRMC,095049,A,5800.367813,N,05617.086945,E,,, 200325,,,A*4f
$GNRMC,095050,A,5800.367813,N,05617.086945,E,,, 200325,,,A*47
$GNRMC,095051,A,5800.367813,N,05617.086945,E,,, 200325,,,A*46
$GNRMC,095052,A,5800.367813,N,05617.086945,E,,, 200325,,,A*45
$GNRMC,095053,A,5800.367813,N,05617.086945,E,,, 200325,,,A*44
$GNRMC,095054,A,5800.367813,N,05617.086945,E,,, 200325,,,A*43
$GNRMC,095055,A,5800.367813,N,05617.086945,E,,, 200325,,,A*42
$GNRMC,095056,A,5800.367813,N,05617.086945,E,,, 200325,,,A*41
$GNRMC,095057,A,5800.367813,N,05617.086945,E,,, 200325,,,A*40
$GNRMC,095058,A,5800.367813,N,05617.086945,E,,, 200325,,,A*4f
$GNRMC,095059,A,5800.367813,N,05617.086487,E,,, 200325,,,A*4d
$GNRMC,095100,A,5800.367584,N,05617.086487,E,,, 200325,,,A*43
$GNRMC,095101,A,5800.367584,N,05617.086487,E,,, 200325,,,A*42
$GNRMC,095102,A,5800.367584,N,05617.086487,E,,, 200325,,,A*41
$GNRMC,095103,A,5800.367584,N,05617.086487,E,,, 200325,,,A*40
$GNRMC,095104,A,5800.367584,N,05617.086487,E,,, 200325,,,A*47
$GNRMC,095105,A,5800.367584,N,05617.086487,E,,, 200325,,,A*46
$GNRMC,095106,A,5800.367584,N,05617.086487,E,,, 200325,,,A*45
$GNRMC,095107,A,5800.367584,N,05617.086487,E,,, 200325,,,A*44
$GNRMC,095108,A,5800.367584,N,05617.086029,E,,, 200325,,,A*4b
$GNRMC,095109,A,5800.367126,N,05617.086029,E,,, 200325,,,A*46
$GNRMC,095110,A,5800.367126,N,05617.086029,E,,, 200325,,,A*4e
$GNRMC,095111,A,5800.367126,N,05617.086029,E,,, 200325,,,A*4f
$GNRMC,095112,A,5800.367126,N,05617.086029,E,,, 200325,,,A*4c
$GNRMC,095113,A,5800.367126,N,05617.086029,E,,, 200325,,,A*4d
$GNRMC,095114,A,5800.366669,N,05617.086029,E,,, 200325,,,A*47
$GNRMC,095115,A,5800.366669,N,05617.086029,E,,, 200325,,,A*46
$GNRMC,095116,A,5800.366669,N,05617.086029,E,,, 200325,,,A*45
$GNRMC,095117,A,5800.366440,N,05617.085800,E,,, 200325,,,A*4d
$GNRMC,095118,A,5800.366669,N,05617.085800,E,,, 200325,,,A*4b
$GNRMC,095119,A,5800.367813,N,05617.084198,E,,, 200325,,,A*41
$GNRMC,095120,A,5800.370560,N,05617.081909,E,,, 200325,,,A*41
$GNRMC,095121,A,5800.374451,N,05617.078705,E,,, 200325,,,A*43
$GNRMC,095122,A,5800.378571,N,05617.076416,E,,, 200325,,,A*40
$GNRMC,095123,A,5800.382462,N,05617.074585,E,,, 200325,,,A*4e
$GNRMC,095124,A,5800.385437,N,05617.072754,E,,, 200325,,,A*46
$GNRMC,095125,A,5800.388184,N,05617.071152,E,,, 200325,,,A*44
$GNRMC,095126,A,5800.390472,N,05617.069550,E,,, 200325,,,A*4d
$GNRMC,095127,A,5800.392761,N,05617.068405,E,,, 200325,,,A*4f
$GNRMC,095128,A,5800.395508,N,05617.066574,E,,, 200325,,,A*43
$GNRMC,095129,A,5800.398254,N,05617.064514,E,,, 200325,,,A*45
$GNRMC,095130,A,5800.401001,N,05617.062225,E,,, 200325,,,A*4b
$GNRMC,095131,A,5800.403976,N,05617.059479,E,,, 200325,,,A*46
$GNRMC,095132,A,5800.406723,N,05617.057190,E,,, 200325,,,A*42
$GNRMC,095133,A,5800.409241,N,05617.054901,E,,, 200325,,,A*4e
$GNRMC,095134,A,5800.411987,N,05617.052383,E,,, 200325,,,A*47
$GNRMC,095135,A,5800.415192,N,05617.049179,E,,, 200325,,,A*43
$GNRMC,095136,A,5800.418167,N,05617.045746,E,,, 200325,,,A*41
$GNRMC,095137,A,5800.421600,N,05617.041855,E,,, 200325,,,A*45
$GNRMC,095138,A,5800.425034,N,05617.037277,E,,, 200325,,,A*44
$GNRMC,095139,A,5800.428925,N,05617.033386,E,,, 200325,,,A*4a
$GNRMC,095140,A,5800.433502,N,05617.029724,E,,, 200325,,,A*40
$GNRMC,095141,A,5800.438538,N,05617.025375,E,,, 200325,,,A*4f
$GNRMC,095142,A,5800.443573,N,05617.020798,E,,, 200325,,,A*4d
$GNRMC,095143,A,5800.448837,N,05617.015762,E,,, 200325,,,A*49
$GNRMC,095144,A,5800.454330,N,05617.010727,E,,, 200325,,,A*4b
$GNRMC,095145,A,5800.460052,N,05617.005463,E,,, 200325,,,A*4d
$GNRMC,095146,A,5800.466232,N,05616.999969,E,,, 200325,,,A*46
$GNRMC,095147,A,5800.471954,N,05616.995163,E,,, 200325,,,A*44
$GNRMC,095148,A,5800.477676,N,05616.990128,E,,, 200325,,,A*48
$GNRMC,095149,A,5800.483398,N,05616.985092,E,,, 200325,,,A*43
$GNRMC,095150,A,5800.489120,N,05616.980057,E,,, 200325,,,A*4c
$GNRMC,095151,A,5800.495071,N,05616.974792,E,,, 200325,,,A*40
$GNRMC,095152,A,5800.500336,N,05616.969757,E,,, 200325,,,A*4b
$GNRMC,095153,A,5800.506058,N,05616.964264,E,,, 200325,,,A*4f
$GNRMC,095154,A,5800.511780,N,05616.959457,E,,, 200325,,,A*44
$GNRMC,095155,A,5800.517731,N,05616.953964,E,,, 200325,,,A*4e
$GNRMC,095156,A,5800.523453,N,05616.949387,E,,, 200325,,,A*41
$GNRMC,095157,A,5800.529175,N,05616.944351,E,,, 200325,,,A*4d
$GNRMC,095158,A,5800.534439,N,05616.939087,E,,, 200325,,,A*41
$GNRMC,095159,A,5800.540390,N,05616.934052,E,,, 200325,,,A*42
$GNRMC,095200,A,5800.545654,N,05616.928558,E,,, 200325,,,A*47
$GNRMC,095201,A,5800.551376,N,05616.923752,E,,, 200325,,,A*45
$GNRMC,095202,A,5800.557098,N,05616.918945,E,,, 200325,,,A*43
$GNRMC,095203,A,5800.562592,N,05616.914139,E,,, 200325,,,A*44
$GNRMC,095204,A,5800.567627,N,05616.909332,E,,, 200325,,,A*4e
$GNRMC,095205,A,5800.572433,N,05616.905670,E,,, 200325,,,A*43
$GNRMC,095206,A,5800.576782,N,05616.901779,E,,, 200325,,,A*41
$GNRMC,095207,A,5800.579758,N,05616.899033,E,,, 200325,,,A*41
$GNRMC,095208,A,5800.582504,N,05616.896744,E,,, 200325,,,A*49
$GNRMC,095209,A,5800.584793,N,05616.894913,E,,, 200325,,,A*4c
$GNRMC,095210,A,5800.586853,N,05616.892853,E,,, 200325,,,A*46
$GNRMC,095211,A,5800.588226,N,05616.891708,E,,, 200325,,,A*43
$GNRMC,095212,A,5800.589828,N,05616.890564,E,,, 200325,,,A*4c
$GNRMC,095213,A,5800.590973,N,05616.889191,E,,, 200325,,,A*4c
$GNRMC,095214,A,5800.592117,N,05616.888275,E,,, 200325,,,A*4b
$GNRMC,095215,A,5800.592804,N,05616.887589,E,,, 200325,,,A*4a
$GNRMC,095216,A,5800.593262,N,05616.887131,E,,, 200325,,,A*45
$GNRMC,095217,A,5800.593719,N,05616.886673,E,,, 200325,,,A*4d
$GNRMC,095218,A,5800.594406,N,05616.886444,E,,, 200325,,,A*4e
$GNRMC,095219,A,5800.594864,N,05616.886444,E,,, 200325,,,A*47
$GNRMC,095220,A,5800.594864,N,05616.885986,E,,, 200325,,,A*4d
$GNRMC,095221,A,5800.595093,N,05616.885986,E,,, 200325,,,A*4d
$GNRMC,095222,A,5800.595093,N,05616.885529,E,,, 200325,,,A*47
$GNRMC,095223,A,5800.595551,N,05616.885529,E,,, 200325,,,A*4d
$GNRMC,095224,A,5800.595551,N,05616.885529,E,,, 200325,,,A*4a
$GNRMC,095225,A,5800.595551,N,05616.885529,E,,, 200325,,,A*4b
$GNRMC,095226,A,5800.595551,N,05616.885529,E,,, 200325,,,A*48
$GNRMC,095227,A,5800.595551,N,05616.885300,E,,, 200325,,,A*44
$GNRMC,095228,A,5800.595551,N,05616.885300,E,,, 200325,,,A*4b
$GNRMC,095229,A,5800.595551,N,05616.885300,E,,, 200325,,,A*4a
$GNRMC,095230,A,5800.595551,N,05616.885300,E,,, 200325,,,A*42
$GNRMC,095231,A,5800.595551,N,05616.885300,E,,, 200325,,,A*43
$GNRMC,095232,A,5800.595551,N,05616.885300,E,,, 200325,,,A*40
$GNRMC,095233,A,5800.595551,N,05616.884842,E,,, 200325,,,A*4d
$GNRMC,095234,A,5800.595551,N,05616.884842,E,,, 200325,,,A*4a
$GNRMC,095235,A,5800.595551,N,05616.884842,E,,, 200325,,,A*4b
$GNRMC,095236,A,5800.595551,N,05616.884842,E,,, 200325,,,A*48
$GNRMC,095237,A,5800.595551,N,05616.884842,E,,, 200325,,,A*49
$GNRMC,095238,A,5800.595551,N,05616.884842,E,,, 200325,,,A*46
$GNRMC,095239,A,5800.595093,N,05616.884842,E,,, 200325,,,A*4c
$GNRMC,095240,A,5800.595093,N,05616.884842,E,,, 200325,,,A*42
$GNRMC,095241,A,5800.595093,N,05616.884384,E,,, 200325,,,A*42
$GNRMC,095242,A,5800.595093,N,05616.884384,E,,, 200325,,,A*41
$GNRMC,095243,A,5800.595093,N,05616.884384,E,,, 200325,,,A*40
$GNRMC,095244,A,5800.595093,N,05616.884384,E,,, 200325,,,A*47
$GNRMC,095245,A,5800.596008,N,05616.883698,E,,, 200325,,,A*48
$GNRMC,095246,A,5800.597153,N,05616.882553,E,,, 200325,,,A*40
$GNRMC,095247,A,5800.598984,N,05616.880951,E,,, 200325,,,A*40
$GNRMC,095248,A,5800.601044,N,05616.878662,E,,, 200325,,,A*41
$GNRMC,095249,A,5800.603333,N,05616.876373,E,,, 200325,,,A*4a
$GNRMC,095250,A,5800.606308,N,05616.874084,E,,, 200325,,,A*46
$GNRMC,095251,A,5800.608597,N,05616.871796,E,,, 200325,,,A*48
$GNRMC,095252,A,5800.611801,N,05616.869049,E,,, 200325,,,A*4d
$GNRMC,095253,A,5800.615234,N,05616.866531,E,,, 200325,,,A*41
$GNRMC,095254,A,5800.619354,N,05616.863327,E,,, 200325,,,A*49
$GNRMC,095255,A,5800.623703,N,05616.859207,E,,, 200325,,,A*4d
$GNRMC,095256,A,5800.628281,N,05616.855316,E,,, 200325,,,A*47
$GNRMC,095257,A,5800.633316,N,05616.850739,E,,, 200325,,,A*4f
$GNRMC,095258,A,5800.638580,N,05616.846161,E,,, 200325,,,A*4e
$GNRMC,095259,A,5800.644073,N,05616.841583,E,,, 200325,,,A*42
$GNRMC,095300,A,5800.649796,N,05616.836548,E,,, 200325,,,A*49
$GNRMC,095301,A,5800.655518,N,05616.831970,E,,, 200325,,,A*41
$GNRMC,095302,A,5800.660782,N,05616.826935,E,,, 200325,,,A*42
$GNRMC,095303,A,5800.666733,N,05616.821899,E,,, 200325,,,A*4f
$GNRMC,095304,A,5800.672455,N,05616.816406,E,,, 200325,,,A*40
$GNRMC,095305,A,5800.678635,N,05616.811600,E,,, 200325,,,A*4c
$GNRMC,095306,A,5800.684357,N,05616.806107,E,,, 200325,,,A*4b
$GNRMC,095307,A,5800.689621,N,05616.801529,E,,, 200325,,,A*4c
$GNRMC,095308,A,5800.694656,N,05616.797409,E,,, 200325,,,A*4c
$GNRMC,095309,A,5800.699692,N,05616.795120,E,,, 200325,,,A*44
$GNRMC,095310,A,5800.704956,N,05616.793747,E,,, 200325,,,A*4f
$GNRMC,095311,A,5800.710449,N,05616.794205,E,,, 200325,,,A*4c
$GNRMC,095312,A,5800.715485,N,05616.795349,E,,, 200325,,,A*42
$GNRMC,095313,A,5800.721207,N,05616.798553,E,,, 200325,,,A*48
$GNRMC,095314,A,5800.726929,N,05616.801987,E,,, 200325,,,A*45
$GNRMC,095315,A,5800.732651,N,05616.804962,E,,, 200325,,,A*4f
$GNRMC,095316,A,5800.738373,N,05616.808167,E,,, 200325,,,A*42
$GNRMC,095317,A,5800.744095,N,05616.811142,E,,, 200325,,,A*4c
$GNRMC,095318,A,5800.749588,N,05616.813889,E,,, 200325,,,A*4b
$GNRMC,095319,A,5800.754623,N,05616.816864,E,,, 200325,,,A*42
$GNRMC,095320,A,5800.759201,N,05616.820068,E,,, 200325,,,A*40
$GNRMC,095321,A,5800.763321,N,05616.823044,E,,, 200325,,,A*46
$GNRMC,095322,A,5800.767670,N,05616.825790,E,,, 200325,,,A*48
$GNRMC,095323,A,5800.771561,N,05616.828079,E,,, 200325,,,A*40
$GNRMC,095324,A,5800.774994,N,05616.829910,E,,, 200325,,,A*43
$GNRMC,095325,A,5800.777512,N,05616.831970,E,,, 200325,,,A*4c
$GNRMC,095326,A,5800.780716,N,05616.833801,E,,, 200325,,,A*44
$GNRMC,095327,A,5800.783463,N,05616.834946,E,,, 200325,,,A*42
$GNRMC,095328,A,5800.785751,N,05616.836090,E,,, 200325,,,A*49
$GNRMC,095329,A,5800.788040,N,05616.837692,E,,, 200325,,,A*47
$GNRMC,095330,A,5800.789413,N,05616.839066,E,,, 200325,,,A*4f
$GNRMC,095331,A,5800.790558,N,05616.839981,E,,, 200325,,,A*48
$GNRMC,095332,A,5800.791473,N,05616.841125,E,,, 200325,,,A*4b
$GNRMC,095333,A,5800.791702,N,05616.842270,E,,, 200325,,,A*4f
$GNRMC,095334,A,5800.792160,N,05616.842728,E,,, 200325,,,A*41
$GNRMC,095335,A,5800.792160,N,05616.842957,E,,, 200325,,,A*46
$GNRMC,095336,A,5800.792160,N,05616.843414,E,,, 200325,,,A*4e
$GNRMC,095337,A,5800.792160,N,05616.843872,E,,, 200325,,,A*43
$GNRMC,095338,A,5800.792160,N,05616.844101,E,,, 200325,,,A*46
$GNRMC,095339,A,5800.792160,N,05616.844559,E,,, 200325,,,A*4e
$GNRMC,095340,A,5800.792160,N,05616.845016,E,,, 200325,,,A*4f
$GNRMC,095341,A,5800.792160,N,05616.845016,E,,, 200325,,,A*4e
$GNRMC,095342,A,5800.792160,N,05616.845245,E,,, 200325,,,A*49
$GNRMC,095343,A,5800.792160,N,05616.845016,E,,, 200325,,,A*4c
$GNRMC,095344,A,5800.792160,N,05616.845016,E,,, 200325,,,A*4b
$GNRMC,095345,A,5800.792160,N,05616.845016,E,,, 200325,,,A*4a
$GNRMC,095346,A,5800.792160,N,05616.845016,E,,, 200325,,,A*49
$GNRMC,095347,A,5800.792618,N,05616.845016,E,,, 200325,,,A*40
$GNRMC,095348,A,5800.792618,N,05616.844559,E,,, 200325,,,A*40
$GNRMC,095349,A,5800.792618,N,05616.844559,E,,, 200325,,,A*41
$GNRMC,095350,A,5800.792618,N,05616.844559,E,,, 200325,,,A*49
$GNRMC,095351,A,5800.792618,N,05616.844101,E,,, 200325,,,A*41
$GNRMC,095352,A,5800.792618,N,05616.844101,E,,, 200325,,,A*42
$GNRMC,095353,A,5800.792618,N,05616.844101,E,,, 200325,,,A*43
$GNRMC,095354,A,5800.792618,N,05616.844101,E,,, 200325,,,A*44
$GNRMC,095355,A,5800.792618,N,05616.844101,E,,, 200325,,,A*45
$GNRMC,095356,A,5800.792847,N,05616.844101,E,,, 200325,,,A*42
$GNRMC,095357,A,5800.792847,N,05616.844101,E,,, 200325,,,A*43
$GNRMC,095358,A,5800.792847,N,05616.844559,E,,, 200325,,,A*45
$GNRMC,095359,A,5800.792847,N,05616.844559,E,,, 200325,,,A*44
$GNRMC,095400,A,5800.792847,N,05616.844559,E,,, 200325,,,A*4f
$GNRMC,095401,A,5800.792847,N,05616.844559,E,,, 200325,,,A*4e
$GNRMC,095402,A,5800.792847,N,05616.845016,E,,, 200325,,,A*42
$GNRMC,095403,A,5800.792847,N,05616.845016,E,,, 200325,,,A*43
$GNRMC,095404,A,5800.792847,N,05616.845016,E,,, 200325,,,A*44
$GNRMC,095405,A,5800.793304,N,05616.845016,E,,, 200325,,,A*48
$GNRMC,095406,A,5800.793304,N,05616.845245,E,,, 200325,,,A*4f
$GNRMC,095407,A,5800.793304,N,05616.845245,E,,, 200325,,,A*4e
$GNRMC,095408,A,5800.793304,N,05616.845245,E,,, 200325,,,A*41
$GNRMC,095409,A,5800.793304,N,05616.845245,E,,, 200325,,,A*40
$GNRMC,095410,A,5800.793304,N,05616.845245,E,,, 200325,,,A*48
$GNRMC,095411,A,5800.793304,N,05616.845245,E,,, 200325,,,A*49
$GNRMC,095412,A,5800.793304,N,05616.845245,E,,, 200325,,,A*4a
$GNRMC,095413,A,5800.793304,N,05616.845703,E,,, 200325,,,A*4c
$GNRMC,095414,A,5800.793304,N,05616.845703,E,,, 200325,,,A*4b
$GNRMC,095415,A,5800.793304,N,05616.845703,E,,, 200325,,,A*4a
$GNRMC,095416,A,5800.793304,N,05616.845703,E,,, 200325,,,A*49
$GNRMC,095417,A,5800.793304,N,05616.845703,E,,, 200325,,,A*48
$GNRMC,095418,A,5800.793304,N,05616.846161,E,,, 200325,,,A*46
$GNRMC,095419,A,5800.793304,N,05616.846161,E,,, 200325,,,A*47
$GNRMC,095420,A,5800.793304,N,05616.846161,E,,, 200325,,,A*4d
$GNRMC,095421,A,5800.793304,N,05616.846390,E,,, 200325,,,A*40
$GNRMC,095422,A,5800.793304,N,05616.846390,E,,, 200325,,,A*43
$GNRMC,095423,A,5800.793304,N,05616.846390,E,,, 200325,,,A*42
$GNRMC,095424,A,5800.793304,N,05616.846848,E,,, 200325,,,A*4b
$GNRMC,095425,A,5800.793304,N,05616.846848,E,,, 200325,,,A*4a
$GNRMC,095426,A,5800.793304,N,05616.846848,E,,, 200325,,,A*49
$GNRMC,095427,A,5800.793304,N,05616.846848,E,,, 200325,,,A*48
$GNRMC,095428,A,5800.793304,N,05616.846848,E,,, 200325,,,A*47
$GNRMC,095429,A,5800.793304,N,05616.846848,E,,, 200325,,,A*46
$GNRMC,095430,A,5800.793304,N,05616.846848,E,,, 200325,,,A*4e
$GNRMC,095431,A,5800.793304,N,05616.846848,E,,, 200325,,,A*4f
$GNRMC,095432,A,5800.793304,N,05616.846848,E,,, 200325,,,A*4c
$GNRMC,095433,A,5800.793304,N,05616.846848,E,,, 200325,,,A*4d
$GNRMC,095434,A,5800.793304,N,05616.846848,E,,, 200325,,,A*4a
$GNRMC,095435,A,5800.793304,N,05616.847305,E,,, 200325,,,A*48
$GNRMC,095436,A,5800.793304,N,05616.847305,E,,, 200325,,,A*4b
$GNRMC,095437,A,5800.793304,N,05616.847305,E,,, 200325,,,A*4a
$GNRMC,095438,A,5800.793304,N,05616.847305,E,,, 200325,,,A*45
$GNRMC,095439,A,5800.793304,N,05616.846848,E,,, 200325,,,A*47
$GNRMC,095440,A,5800.793304,N,05616.846848,E,,, 200325,,,A*49
$GNRMC,095441,A,5800.793304,N,05616.846848,E,,, 200325,,,A*48
$GNRMC,095442,A,5800.793304,N,05616.846848,E,,, 200325,,,A*4b
$GNRMC,095443,A,5800.793304,N,05616.846848,E,,, 200325,,,A*4a
$GNRMC,095444,A,5800.793304,N,05616.846848,E,,, 200325,,,A*4d
$GNRMC,095445,A,5800.793304,N,05616.846848,E,,, 200325,,,A*4c
$GNRMC,095446,A,5800.793304,N,05616.846848,E,,, 200325,,,A*4f
$GNRMC,095447,A,5800.793304,N,05616.846848,E,,, 200325,,,A*4e
$GNRMC,095448,A,5800.793304,N,05616.846848,E,,, 200325,,,A*41
$GNRMC,095449,A,5800.792847,N,05616.846848,E,,, 200325,,,A*4d
$GNRMC,095450,A,5800.792847,N,05616.846848,E,,, 200325,,,A*45
$GNRMC,095451,A,5800.792847,N,05616.846848,E,,, 200325,,,A*44
$GNRMC,095452,A,5800.792847,N,05616.846848,E,,, 200325,,,A*47
$GNRMC,095453,A,5800.792847,N,05616.846848,E,,, 200325,,,A*46
$GNRMC,095454,A,5800.792847,N,05616.846848,E,,, 200325,,,A*41
$GNRMC,095455,A,5800.792847,N,05616.846848,E,,, 200325,,,A*40
$GNRMC,095456,A,5800.792847,N,05616.846848,E,,, 200325,,,A*43
$GNRMC,095457,A,5800.792847,N,05616.846848,E,,, 200325,,,A*42
$GNRMC,095458,A,5800.792847,N,05616.846848,E,,, 200325,,,A*4d
$GNRMC,095459,A,5800.792847,N,05616.847305,E,,, 200325,,,A*4f
$GNRMC,095500,A,5800.792847,N,05616.847305,E,,, 200325,,,A*42
$GNRMC,095501,A,5800.792847,N,05616.847305,E,,, 200325,,,A*43
$GNRMC,095502,A,5800.792847,N,05616.847305,E,,, 200325,,,A*40
$GNRMC,095503,A,5800.792847,N,05616.847305,E,,, 200325,,,A*41
$GNRMC,095504,A,5800.792847,N,05616.847305,E,,, 200325,,,A*46
$GNRMC,095505,A,5800.792847,N,05616.847534,E,,, 200325,,,A*43
$GNRMC,095506,A,5800.792847,N,05616.847534,E,,, 200325,,,A*40
$GNRMC,095507,A,5800.792847,N,05616.847534,E,,, 200325,,,A*41
$GNRMC,095508,A,5800.792847,N,05616.847534,E,,, 200325,,,A*4e
$GNRMC,095509,A,5800.792847,N,05616.847992,E,,, 200325,,,A*4f
$GNRMC,095510,A,5800.792847,N,05616.847992,E,,, 200325,,,A*47
$GNRMC,095511,A,5800.792847,N,05616.847992,E,,, 200325,,,A*46
$GNRMC,095512,A,5800.792847,N,05616.848450,E,,, 200325,,,A*49
$GNRMC,095513,A,5800.792847,N,05616.848450,E,,, 200325,,,A*48
$GNRMC,095514,A,5800.792847,N,05616.848450,E,,, 200325,,,A*4f
$GNRMC,095515,A,5800.792847,N,05616.848450,E,,, 200325,,,A*4e
$GNRMC,095516,A,5800.792847,N,05616.848450,E,,, 200325,,,A*4d
$GNRMC,095517,A,5800.792847,N,05616.848679,E,,, 200325,,,A*45
$GNRMC,095518,A,5800.792847,N,05616.848679,E,,, 200325,,,A*4a
$GNRMC,095519,A,5800.792847,N,05616.848679,E,,, 200325,,,A*4b
$GNRMC,095520,A,5800.792847,N,05616.848679,E,,, 200325,,,A*41
$GNRMC,095521,A,5800.792847,N,05616.849136,E,,, 200325,,,A*4d
$GNRMC,095522,A,5800.792847,N,05616.849136,E,,, 200325,,,A*4e
$GNRMC,095523,A,5800.792847,N,05616.849136,E,,, 200325,,,A*4f
$GNRMC,095524,A,5800.792847,N,05616.849136,E,,, 200325,,,A*48
$GNRMC,095525,A,5800.792847,N,05616.849594,E,,, 200325,,,A*45
$GNRMC,095526,A,5800.792847,N,05616.849594,E,,, 200325,,,A*46
$GNRMC,095527,A,5800.792847,N,05616.849594,E,,, 200325,,,A*47
$GNRMC,095528,A,5800.792847,N,05616.849823,E,,, 200325,,,A*49
$GNRMC,095529,A,5800.792847,N,05616.849823,E,,, 200325,,,A*48
$GNRMC,095530,A,5800.792847,N,05616.849823,E,,, 200325,,,A*40
$GNRMC,095531,A,5800.792847,N,05616.850281,E,,, 200325,,,A*4b
$GNRMC,095532,A,5800.792847,N,05616.850281,E,,, 200325,,,A*48
$GNRMC,095533,A,5800.792847,N,05616.850281,E,,, 200325,,,A*49
$GNRMC,095534,A,5800.792847,N,05616.850281,E,,, 200325,,,A*4e
$GNRMC,095535,A,5800.792847,N,05616.850281,E,,, 200325,,,A*4f
$GNRMC,095536,A,5800.792847,N,05616.850739,E,,, 200325,,,A*4a
$GNRMC,095537,A,5800.792847,N,05616.850739,E,,, 200325,,,A*4b
$GNRMC,095538,A,5800.792847,N,05616.850739,E,,, 200325,,,A*44
$GNRMC,095539,A,5800.792847,N,05616.850739,E,,, 200325,,,A*45
$GNRMC,095540,A,5800.792847,N,05616.850739,E,,, 200325,,,A*4b
$GNRMC,095541,A,5800.792847,N,05616.850739,E,,, 200325,,,A*4a
$GNRMC,095542,A,5800.792847,N,05616.850739,E,,, 200325,,,A*49
$GNRMC,095543,A,5800.792847,N,05616.850739,E,,, 200325,,,A*48
$GNRMC,095544,A,5800.792847,N,05616.850739,E,,, 200325,,,A*4f
$GNRMC,095545,A,5800.792847,N,05616.850739,E,,, 200325,,,A*4e
$GNRMC,095546,A,5800.792847,N,05616.850739,E,,, 200325,,,A*4d
$GNRMC,095547,A,5800.792847,N,05616.850739,E,,, 200325,,,A*4c
$GNRMC,095548,A,5800.792847,N,05616.850739,E,,, 200325,,,A*43
$GNRMC,095549,A,5800.792847,N,05616.850739,E,,, 200325,,,A*42
$GNRMC,095550,A,5800.792847,N,05616.850739,E,,, 200325,,,A*4a
$GNRMC,095551,A,5800.792847,N,05616.850739,E,,, 200325,,,A*4b
$GNRMC,095552,A,5800.792847,N,05616.850739,E,,, 200325,,,A*48
$GNRMC,095553,A,5800.792847,N,05616.850739,E,,, 200325,,,A*49
$GNRMC,095554,A,5800.792847,N,05616.850281,E,,, 200325,,,A*48
$GNRMC,095555,A,5800.793304,N,05616.850281,E,,, 200325,,,A*44
$GNRMC,095556,A,5800.793304,N,05616.850281,E,,, 200325,,,A*47
$GNRMC,095557,A,5800.793304,N,05616.850281,E,,, 200325,,,A*46
$GNRMC,095558,A,5800.793304,N,05616.850281,E,,, 200325,,,A*49
$GNRMC,095559,A,5800.793304,N,05616.850281,E,,, 200325,,,A*48
$GNRMC,095600,A,5800.793304,N,05616.850281,E,,, 200325,,,A*47
$GNRMC,095601,A,5800.793304,N,05616.850281,E,,, 200325,,,A*46
$GNRMC,095602,A,5800.793304,N,05616.850281,E,,, 200325,,,A*45
$GNRMC,095603,A,5800.793304,N,05616.850281,E,,, 200325,,,A*44
$GNRMC,095604,A,5800.793304,N,05616.850281,E,,, 200325,,,A*43
$GNRMC,095605,A,5800.793304,N,05616.850281,E,,, 200325,,,A*42
$GNRMC,095606,A,5800.793304,N,05616.850281,E,,, 200325,,,A*41
$GNRMC,095607,A,5800.792847,N,05616.850281,E,,, 200325,,,A*4d
$GNRMC,095608,A,5800.792847,N,05616.849823,E,,, 200325,,,A*48
$GNRMC,095609,A,5800.792847,N,05616.849823,E,,, 200325,,,A*49
$GNRMC,095610,A,5800.792847,N,05616.849823,E,,, 200325,,,A*41
$GNRMC,095611,A,5800.792847,N,05616.849823,E,,, 200325,,,A*40
$GNRMC,095612,A,5800.792847,N,05616.849823,E,,, 200325,,,A*43
$GNRMC,095613,A,5800.792847,N,05616.849823,E,,, 200325,,,A*42
$GNRMC,095614,A,5800.792847,N,05616.849823,E,,, 200325,,,A*45
$GNRMC,095615,A,5800.792847,N,05616.849823,E,,, 200325,,,A*44
$GNRMC,095616,A,5800.792618,N,05616.849823,E,,, 200325,,,A*43
$GNRMC,095617,A,5800.792618,N,05616.849823,E,,, 200325,,,A*42
$GNRMC,095618,A,5800.792618,N,05616.849823,E,,, 200325,,,A*4d
$GNRMC,095619,A,5800.792618,N,05616.849823,E,,, 200325,,,A*4c
$GNRMC,095620,A,5800.792618,N,05616.849823,E,,, 200325,,,A*46
$GNRMC,095621,A,5800.792618,N,05616.849823,E,,, 200325,,,A*47
$GNRMC,095622,A,5800.792618,N,05616.849823,E,,, 200325,,,A*44
$GNRMC,095623,A,5800.792618,N,05616.849823,E,,, 200325,,,A*45
$GNRMC,095624,A,5800.792618,N,05616.849823,E,,, 200325,,,A*42
$GNRMC,095625,A,5800.792618,N,05616.849823,E,,, 200325,,,A*43
$GNRMC,095626,A,5800.792618,N,05616.849823,E,,, 200325,,,A*40
$GNRMC,095627,A,5800.792160,N,05616.850281,E,,, 200325,,,A*43
$GNRMC,095628,A,5800.792160,N,05616.850281,E,,, 200325,,,A*4c
$GNRMC,095629,A,5800.792160,N,05616.850281,E,,, 200325,,,A*4d
$GNRMC,095630,A,5800.792160,N,05616.850281,E,,, 200325,,,A*45
$GNRMC,095631,A,5800.792160,N,05616.850281,E,,, 200325,,,A*44
$GNRMC,095632,A,5800.792160,N,05616.850281,E,,, 200325,,,A*47
$GNRMC,095633,A,5800.792160,N,05616.850281,E,,, 200325,,,A*46
$GNRMC,095634,A,5800.792160,N,05616.850281,E,,, 200325,,,A*41
$GNRMC,095635,A,5800.792160,N,05616.850281,E,,, 200325,,,A*40
$GNRMC,095636,A,5800.792160,N,05616.850281,E,,, 200325,,,A*43
$GNRMC,095637,A,5800.792160,N,05616.850281,E,,, 200325,,,A*42
$GNRMC,095638,A,5800.792160,N,05616.850281,E,,, 200325,,,A*4d
$GNRMC,095639,A,5800.791702,N,05616.850281,E,,, 200325,,,A*4d
$GNRMC,095640,A,5800.791702,N,05616.850281,E,,, 200325,,,A*43
$GNRMC,095641,A,5800.791702,N,05616.850281,E,,, 200325,,,A*42
$GNRMC,095642,A,5800.791702,N,05616.850281,E,,, 200325,,,A*41
$GNRMC,095643,A,5800.791702,N,05616.850281,E,,, 200325,,,A*40
$GNRMC,095644,A,5800.791702,N,05616.850281,E,,, 200325,,,A*47
$GNRMC,095645,A,5800.791702,N,05616.850281,E,,, 200325,,,A*46
$GNRMC,095646,A,5800.791702,N,05616.850281,E,,, 200325,,,A*45
$GNRMC,095647,A,5800.791702,N,05616.850281,E,,, 200325,,,A*44
$GNRMC,095648,A,5800.791702,N,05616.850281,E,,, 200325,,,A*4b
$GNRMC,095649,A,5800.791702,N,05616.850281,E,,, 200325,,,A*4a
$GNRMC,095650,A,5800.791702,N,05616.850281,E,,, 200325,,,A*42
$GNRMC,095651,A,5800.791702,N,05616.850281,E,,, 200325,,,A*43
$GNRMC,095652,A,5800.791702,N,05616.850281,E,,, 200325,,,A*40
$GNRMC,095653,A,5800.791702,N,05616.850281,E,,, 200325,,,A*41
$GNRMC,095654,A,5800.791702,N,05616.849823,E,,, 200325,,,A*4c
$GNRMC,095655,A,5800.791702,N,05616.849823,E,,, 200325,,,A*4d
$GNRMC,095656,A,5800.791702,N,05616.849823,E,,, 200325,,,A*4e
$GNRMC,095657,A,5800.791702,N,05616.849823,E,,, 200325,,,A*4f
$GNRMC,095658,A,5800.791702,N,05616.849823,E,,, 200325,,,A*40
$GNRMC,095659,A,5800.791702,N,05616.849823,E,,, 200325,,,A*41
$GNRMC,095700,A,5800.791702,N,05616.849823,E,,, 200325,,,A*4c
$GNRMC,095701,A,5800.791702,N,05616.849594,E,,, 200325,,,A*4c
$GNRMC,095702,A,5800.791702,N,05616.849594,E,,, 200325,,,A*4f
$GNRMC,095703,A,5800.791702,N,05616.849594,E,,, 200325,,,A*4e
$GNRMC,095704,A,5800.791702,N,05616.849594,E,,, 200325,,,A*49
$GNRMC,095705,A,5800.791702,N,05616.849594,E,,, 200325,,,A*48
$GNRMC,095706,A,5800.791702,N,05616.849594,E,,, 200325,,,A*4b
$GNRMC,095707,A,5800.791702,N,05616.849594,E,,, 200325,,,A*4a
$GNRMC,095708,A,5800.791702,N,05616.849594,E,,, 200325,,,A*45
$GNRMC,095709,A,5800.791702,N,05616.849594,E,,, 200325,,,A*44
$GNRMC,095710,A,5800.791702,N,05616.849594,E,,, 200325,,,A*4c
$GNRMC,095711,A,5800.791702,N,05616.849594,E,,, 200325,,,A*4d
$GNRMC,095712,A,5800.791702,N,05616.849594,E,,, 200325,,,A*4e
$GNRMC,095713,A,5800.791702,N,05616.849594,E,,, 200325,,,A*4f
$GNRMC,095714,A,5800.791702,N,05616.849594,E,,, 200325,,,A*48
$GNRMC,095715,A,5800.791702,N,05616.849594,E,,, 200325,,,A*49
$GNRMC,095716,A,5800.791702,N,05616.849594,E,,, 200325,,,A*4a
$GNRMC,095717,A,5800.791702,N,05616.849594,E,,, 200325,,,A*4b
$GNRMC,095718,A,5800.791702,N,05616.849136,E,,, 200325,,,A*48
$GNRMC,095719,A,5800.791702,N,05616.849136,E,,, 200325,,,A*49
$GNRMC,095720,A,5800.791702,N,05616.849136,E,,, 200325,,,A*43
$GNRMC,095721,A,5800.791702,N,05616.848679,E,,, 200325,,,A*4f
$GNRMC,095722,A,5800.791702,N,05616.848679,E,,, 200325,,,A*4c
$GNRMC,095723,A,5800.791702,N,05616.848679,E,,, 200325,,,A*4d
$GNRMC,095724,A,5800.791702,N,05616.848679,E,,, 200325,,,A*4a
$GNRMC,095725,A,5800.791702,N,05616.848679,E,,, 200325,,,A*4b
$GNRMC,095726,A,5800.791702,N,05616.848450,E,,, 200325,,,A*41
$GNRMC,095727,A,5800.791702,N,05616.848450,E,,, 200325,,,A*40
$GNRMC,095728,A,5800.791702,N,05616.848450,E,,, 200325,,,A*4f
$GNRMC,095729,A,5800.791702,N,05616.848450,E,,, 200325,,,A*4e
$GNRMC,095730,A,5800.791702,N,05616.847992,E,,, 200325,,,A*4a
$GNRMC,095731,A,5800.791702,N,05616.847992,E,,, 200325,,,A*4b
$GNRMC,095732,A,5800.791702,N,05616.847534,E,,, 200325,,,A*48
$GNRMC,095733,A,5800.792160,N,05616.847534,E,,, 200325,,,A*48
$GNRMC,095734,A,5800.792160,N,05616.847534,E,,, 200325,,,A*4f
$GNRMC,095735,A,5800.792160,N,05616.847305,E,,, 200325,,,A*4a
$GNRMC,095736,A,5800.792160,N,05616.847305,E,,, 200325,,,A*49
$GNRMC,095737,A,5800.792160,N,05616.847305,E,,, 200325,,,A*48
$GNRMC,095738,A,5800.792160,N,05616.846848,E,,, 200325,,,A*44
$GNRMC,095739,A,5800.792160,N,05616.846848,E,,, 200325,,,A*45
$GNRMC,095740,A,5800.792160,N,05616.846848,E,,, 200325,,,A*4b
$GNRMC,095741,A,5800.792160,N,05616.846848,E,,, 200325,,,A*4a
$GNRMC,095742,A,5800.792160,N,05616.846848,E,,, 200325,,,A*49
$GNRMC,095743,A,5800.792160,N,05616.846848,E,,, 200325,,,A*48
$GNRMC,095744,A,5800.792160,N,05616.846848,E,,, 200325,,,A*4f
$GNRMC,095745,A,5800.792160,N,05616.846848,E,,, 200325,,,A*4e
$GNRMC,095746,A,5800.792160,N,05616.846848,E,,, 200325,,,A*4d
$GNRMC,095747,A,5800.792160,N,05616.846848,E,,, 200325,,,A*4c
$GNRMC,095748,A,5800.792160,N,05616.846848,E,,, 200325,,,A*43
$GNRMC,095749,A,5800.792160,N,05616.846848,E,,, 200325,,,A*42
$GNRMC,095750,A,5800.792160,N,05616.846848,E,,, 200325,,,A*4a
$GNRMC,095751,A,5800.792160,N,05616.846848,E,,, 200325,,,A*4b
$GNRMC,095752,A,5800.792160,N,05616.846848,E,,, 200325,,,A*48
$GNRMC,095753,A,5800.792160,N,05616.846848,E,,, 200325,,,A*49
$GNRMC,095754,A,5800.792160,N,05616.846848,E,,, 200325,,,A*4e
$GNRMC,095755,A,5800.792160,N,05616.846848,E,,, 200325,,,A*4f
$GNRMC,095756,A,5800.792160,N,05616.846848,E,,, 200325,,,A*4c
$GNRMC,095757,A,5800.792618,N,05616.846848,E,,, 200325,,,A*45
$GNRMC,095758,A,5800.792618,N,05616.846848,E,,, 200325,,,A*4a
$GNRMC,095759,A,5800.792618,N,05616.846848,E,,, 200325,,,A*4b
$GNRMC,095800,A,5800.792618,N,05616.846848,E,,, 200325,,,A*48
$GNRMC,095801,A,5800.792618,N,05616.846848,E,,, 200325,,,A*49
$GNRMC,095802,A,5800.792618,N,05616.846848,E,,, 200325,,,A*4a
$GNRMC,095803,A,5800.792618,N,05616.846848,E,,, 200325,,,A*4b
$GNRMC,095804,A,5800.792618,N,05616.846848,E,,, 200325,,,A*4c
$GNRMC,095805,A,5800.792618,N,05616.846848,E,,, 200325,,,A*4d
$GNRMC,095806,A,5800.792618,N,05616.846848,E,,, 200325,,,A*4e
$GNRMC,095807,A,5800.792618,N,05616.846848,E,,, 200325,,,A*4f
$GNRMC,095808,A,5800.792618,N,05616.846848,E,,, 200325,,,A*40
$GNRMC,095809,A,5800.792618,N,05616.846848,E,,, 200325,,,A*41
$GNRMC,095810,A,5800.792618,N,05616.846848,E,,, 200325,,,A*49
$GNRMC,095811,A,5800.792618,N,05616.846848,E,,, 200325,,,A*48
$GNRMC,095812,A,5800.792618,N,05616.846848,E,,, 200325,,,A*4b
$GNRMC,095813,A,5800.792618,N,05616.846848,E,,, 200325,,,A*4a
$GNRMC,095814,A,5800.792618,N,05616.846848,E,,, 200325,,,A*4d
$GNRMC,095815,A,5800.792618,N,05616.846848,E,,, 200325,,,A*4c
$GNRMC,095816,A,5800.792618,N,05616.846848,E,,, 200325,,,A*4f
$GNRMC,095817,A,5800.792618,N,05616.846848,E,,, 200325,,,A*4e
$GNRMC,095818,A,5800.792618,N,05616.846848,E,,, 200325,,,A*41
$GNRMC,095819,A,5800.792618,N,05616.846848,E,,, 200325,,,A*40
$GNRMC,095820,A,5800.792618,N,05616.846390,E,,, 200325,,,A*44
$GNRMC,095821,A,5800.792618,N,05616.846390,E,,, 200325,,,A*45
$GNRMC,095822,A,5800.792618,N,05616.846390,E,,, 200325,,,A*46
$GNRMC,095823,A,5800.792618,N,05616.846390,E,,, 200325,,,A*47
$GNRMC,095824,A,5800.792618,N,05616.846390,E,,, 200325,,,A*40
$GNRMC,095825,A,5800.792618,N,05616.846390,E,,, 200325,,,A*41
$GNRMC,095826,A,5800.792618,N,05616.846390,E,,, 200325,,,A*42
$GNRMC,095827,A,5800.792160,N,05616.846390,E,,, 200325,,,A*4b
$GNRMC,095828,A,5800.792160,N,05616.846390,E,,, 200325,,,A*44
$GNRMC,095829,A,5800.792160,N,05616.846161,E,,, 200325,,,A*49
$GNRMC,095830,A,5800.792160,N,05616.846161,E,,, 200325,,,A*41
$GNRMC,095831,A,5800.792160,N,05616.846161,E,,, 200325,,,A*40
$GNRMC,095832,A,5800.792160,N,05616.846161,E,,, 200325,,,A*43
$GNRMC,095833,A,5800.792160,N,05616.846161,E,,, 200325,,,A*42
$GNRMC,095834,A,5800.792160,N,05616.846161,E,,, 200325,,,A*45
$GNRMC,095835,A,5800.792160,N,05616.845703,E,,, 200325,,,A*45
$GNRMC,095836,A,5800.792160,N,05616.845703,E,,, 200325,,,A*46
$GNRMC,095837,A,5800.792160,N,05616.845703,E,,, 200325,,,A*47
$GNRMC,095838,A,5800.792160,N,05616.845703,E,,, 200325,,,A*48
$GNRMC,095839,A,5800.792160,N,05616.845703,E,,, 200325,,,A*49
$GNRMC,095840,A,5800.792160,N,05616.845703,E,,, 200325,,,A*47
$GNRMC,095841,A,5800.792160,N,05616.845703,E,,, 200325,,,A*46
$GNRMC,095842,A,5800.792160,N,05616.845245,E,,, 200325,,,A*42
$GNRMC,095843,A,5800.792160,N,05616.845245,E,,, 200325,,,A*43
$GNRMC,095844,A,5800.792160,N,05616.845245,E,,, 200325,,,A*44
$GNRMC,095845,A,5800.791702,N,05616.845245,E,,, 200325,,,A*44
$GNRMC,095846,A,5800.791702,N,05616.845245,E,,, 200325,,,A*47
$GNRMC,095847,A,5800.791702,N,05616.845245,E,,, 200325,,,A*46
$GNRMC,095848,A,5800.791702,N,05616.845245,E,,, 200325,,,A*49
$GNRMC,095849,A,5800.791702,N,05616.845245,E,,, 200325,,,A*48
$GNRMC,095850,A,5800.791702,N,05616.845245,E,,, 200325,,,A*40
$GNRMC,095851,A,5800.791702,N,05616.845245,E,,, 200325,,,A*41
$GNRMC,095852,A,5800.791702,N,05616.845245,E,,, 200325,,,A*42
$GNRMC,095853,A,5800.791702,N,05616.845016,E,,, 200325,,,A*47
$GNRMC,095854,A,5800.792160,N,05616.845016,E,,, 200325,,,A*41
$GNRMC,095855,A,5800.792160,N,05616.845016,E,,, 200325,,,A*40
$GNRMC,095856,A,5800.792160,N,05616.845016,E,,, 200325,,,A*43
$GNRMC,095857,A,5800.792160,N,05616.845016,E,,, 200325,,,A*42
$GNRMC,095858,A,5800.792160,N,05616.845016,E,,, 200325,,,A*4d
$GNRMC,095859,A,5800.792160,N,05616.845016,E,,, 200325,,,A*4c
$GNRMC,095900,A,5800.792160,N,05616.845016,E,,, 200325,,,A*41
$GNRMC,095901,A,5800.792160,N,05616.845016,E,,, 200325,,,A*40
$GNRMC,095902,A,5800.792160,N,05616.845016,E,,, 200325,,,A*43
$GNRMC,095903,A,5800.792160,N,05616.845016,E,,, 200325,,,A*42
$GNRMC,095904,A,5800.792160,N,05616.845016,E,,, 200325,,,A*45
$GNRMC,095905,A,5800.792160,N,05616.845016,E,,, 200325,,,A*44
$GNRMC,095906,A,5800.792160,N,05616.845016,E,,, 200325,,,A*47
$GNRMC,095907,A,5800.792160,N,05616.845016,E,,, 200325,,,A*46
$GNRMC,095908,A,5800.792160,N,05616.844559,E,,, 200325,,,A*46
$GNRMC,095909,A,5800.792160,N,05616.844559,E,,, 200325,,,A*47
$GNRMC,095910,A,5800.792618,N,05616.844559,E,,, 200325,,,A*47
$GNRMC,095911,A,5800.792618,N,05616.844559,E,,, 200325,,,A*46
$GNRMC,095912,A,5800.792618,N,05616.844559,E,,, 200325,,,A*45
$GNRMC,095913,A,5800.792618,N,05616.844559,E,,, 200325,,,A*44
$GNRMC,095914,A,5800.792618,N,05616.844559,E,,, 200325,,,A*43
$GNRMC,095915,A,5800.792618,N,05616.844559,E,,, 200325,,,A*42
$GNRMC,095916,A,5800.792618,N,05616.844559,E,,, 200325,,,A*41
$GNRMC,095917,A,5800.792618,N,05616.844559,E,,, 200325,,,A*40
$GNRMC,095918,A,5800.792618,N,05616.844559,E,,, 200325,,,A*4f
$GNRMC,095919,A,5800.792618,N,05616.844559,E,,, 200325,,,A*4e
$GNRMC,095920,A,5800.792618,N,05616.844559,E,,, 200325,,,A*44
$GNRMC,095921,A,5800.792618,N,05616.844559,E,,, 200325,,,A*45
$GNRMC,095922,A,5800.792618,N,05616.844559,E,,, 200325,,,A*46
$GNRMC,095923,A,5800.792618,N,05616.844559,E,,, 200325,,,A*47
$GNRMC,095924,A,5800.792618,N,05616.844559,E,,, 200325,,,A*40
$GNRMC,095925,A,5800.792618,N,05616.844559,E,,, 200325,,,A*41
$GNRMC,095926,A,5800.792618,N,05616.844559,E,,, 200325,,,A*42
$GNRMC,095927,A,5800.792618,N,05616.844559,E,,, 200325,,,A*43
$GNRMC,095928,A,5800.792618,N,05616.844559,E,,, 200325,,,A*4c
$GNRMC,095929,A,5800.792618,N,05616.844559,E,,, 200325,,,A*4d
$GNRMC,095930,A,5800.792618,N,05616.845016,E,,, 200325,,,A*4a
$GNRMC,095931,A,5800.792618,N,05616.845016,E,,, 200325,,,A*4b
$GNRMC,095932,A,5800.792618,N,05616.845016,E,,, 200325,,,A*48
$GNRMC,095933,A,5800.792618,N,05616.845016,E,,, 200325,,,A*49
$GNRMC,095934,A,5800.792618,N,05616.845016,E,,, 200325,,,A*4e
$GNRMC,095935,A,5800.792618,N,05616.845016,E,,, 200325,,,A*4f
$GNRMC,095936,A,5800.792618,N,05616.845016,E,,, 200325,,,A*4c
$GNRMC,095937,A,5800.792618,N,05616.845016,E,,, 200325,,,A*4d
$GNRMC,095938,A,5800.792847,N,05616.845016,E,,, 200325,,,A*46
$GNRMC,095939,A,5800.792847,N,05616.845016,E,,, 200325,,,A*47
$GNRMC,095940,A,5800.792847,N,05616.845016,E,,, 200325,,,A*49
$GNRMC,095941,A,5800.792847,N,05616.845016,E,,, 200325,,,A*48
$GNRMC,095942,A,5800.792847,N,05616.845016,E,,, 200325,,,A*4b
$GNRMC,095943,A,5800.792847,N,05616.845245,E,,, 200325,,,A*4e
$GNRMC,095944,A,5800.792847,N,05616.845245,E,,, 200325,,,A*49
$GNRMC,095945,A,5800.792847,N,05616.845245,E,,, 200325,,,A*48
$GNRMC,095946,A,5800.792847,N,05616.845245,E,,, 200325,,,A*4b
$GNRMC,095947,A,5800.792847,N,05616.845245,E,,, 200325,,,A*4a
$GNRMC,095948,A,5800.792847,N,05616.845245,E,,, 200325,,,A*45
$GNRMC,095949,A,5800.792847,N,05616.845245,E,,, 200325,,,A*44
$GNRMC,095950,A,5800.792847,N,05616.845245,E,,, 200325,,,A*4c
$GNRMC,095951,A,5800.793304,N,05616.845703,E,,, 200325,,,A*47
$GNRMC,095952,A,5800.793304,N,05616.845703,E,,, 200325,,,A*44
$GNRMC,095953,A,5800.793304,N,05616.845703,E,,, 200325,,,A*45
$GNRMC,095954,A,5800.793304,N,05616.845703,E,,, 200325,,,A*42
$GNRMC,095955,A,5800.793304,N,05616.846161,E,,, 200325,,,A*42
$GNRMC,095956,A,5800.793304,N,05616.846161,E,,, 200325,,,A*41
$GNRMC,095957,A,5800.793304,N,05616.846161,E,,, 200325,,,A*40
$GNRMC,095958,A,5800.793304,N,05616.846390,E,,, 200325,,,A*43
$GNRMC,095959,A,5800.793304,N,05616.846390,E,,, 200325,,,A*42
$GNRMC,100000,A,5800.793304,N,05616.846390,E,,, 200325,,,A*4a
$GNRMC,100001,A,5800.793304,N,05616.846848,E,,, 200325,,,A*45
$GNRMC,100002,A,5800.793304,N,05616.846848,E,,, 200325,,,A*46
$GNRMC,100003,A,5800.793304,N,05616.846848,E,,, 200325,,,A*47
$GNRMC,100004,A,5800.793304,N,05616.846848,E,,, 200325,,,A*40
$GNRMC,100005,A,5800.793304,N,05616.846848,E,,, 200325,,,A*41
$GNRMC,100006,A,5800.793304,N,05616.847305,E,,, 200325,,,A*41
$GNRMC,100007,A,5800.793304,N,05616.847305,E,,, 200325,,,A*40
$GNRMC,100008,A,5800.793304,N,05616.847305,E,,, 200325,,,A*4f
$GNRMC,100009,A,5800.793304,N,05616.847305,E,,, 200325,,,A*4e
$GNRMC,100010,A,5800.793304,N,05616.847534,E,,, 200325,,,A*42
$GNRMC,100011,A,5800.793304,N,05616.847534,E,,, 200325,,,A*43
$GNRMC,100012,A,5800.793304,N,05616.847534,E,,, 200325,,,A*40
$GNRMC,100013,A,5800.793304,N,05616.847534,E,,, 200325,,,A*41
$GNRMC,100014,A,5800.793304,N,05616.847992,E,,, 200325,,,A*46
$GNRMC,100015,A,5800.793304,N,05616.847992,E,,, 200325,,,A*47
$GNRMC,100016,A,5800.793304,N,05616.847992,E,,, 200325,,,A*44
$GNRMC,100017,A,5800.793304,N,05616.848450,E,,, 200325,,,A*49
$GNRMC,100018,A,5800.793304,N,05616.848450,E,,, 200325,,,A*46
$GNRMC,100019,A,5800.793304,N,05616.848450,E,,, 200325,,,A*47
$GNRMC,100020,A,5800.793304,N,05616.848679,E,,, 200325,,,A*44
$GNRMC,100021,A,5800.793304,N,05616.848679,E,,, 200325,,,A*45
$GNRMC,100022,A,5800.793304,N,05616.848679,E,,, 200325,,,A*46
$GNRMC,100023,A,5800.793304,N,05616.848679,E,,, 200325,,,A*47
$GNRMC,100024,A,5800.793304,N,05616.848679,E,,, 200325,,,A*40
$GNRMC,100025,A,5800.793304,N,05616.849136,E,,, 200325,,,A*4c
$GNRMC,100026,A,5800.793304,N,05616.849136,E,,, 200325,,,A*4f
$GNRMC,100027,A,5800.793304,N,05616.849136,E,,, 200325,,,A*4e
$GNRMC,100028,A,5800.793304,N,05616.849136,E,,, 200325,,,A*41
$GNRMC,100029,A,5800.793304,N,05616.849136,E,,, 200325,,,A*40
$GNRMC,100030,A,5800.793304,N,05616.849136,E,,, 200325,,,A*48
$GNRMC,100031,A,5800.793304,N,05616.849136,E,,, 200325,,,A*49
$GNRMC,100032,A,5800.793304,N,05616.849136,E,,, 200325,,,A*4a
$GNRMC,100033,A,5800.793304,N,05616.849136,E,,, 200325,,,A*4b
$GNRMC,100034,A,5800.793304,N,05616.849136,E,,, 200325,,,A*4c
$GNRMC,100035,A,5800.793304,N,05616.849136,E,,, 200325,,,A*4d
$GNRMC,100036,A,5800.793304,N,05616.849136,E,,, 200325,,,A*4e
$GNRMC,100037,A,5800.793304,N,05616.849136,E,,, 200325,,,A*4f
$GNRMC,100038,A,5800.793304,N,05616.849136,E,,, 200325,,,A*40
$GNRMC,100039,A,5800.793304,N,05616.849136,E,,, 200325,,,A*41
$GNRMC,100040,A,5800.793304,N,05616.849136,E,,, 200325,,,A*4f
$GNRMC,100041,A,5800.793304,N,05616.849136,E,,, 200325,,,A*4e
$GNRMC,100042,A,5800.792847,N,05616.849136,E,,, 200325,,,A*40
$GNRMC,100043,A,5800.792847,N,05616.849136,E,,, 200325,,,A*41
$GNRMC,100044,A,5800.792847,N,05616.849136,E,,, 200325,,,A*46
$GNRMC,100045,A,5800.792847,N,05616.849594,E,,, 200325,,,A*4b
$GNRMC,100046,A,5800.792847,N,05616.849594,E,,, 200325,,,A*48
$GNRMC,100047,A,5800.792847,N,05616.849594,E,,, 200325,,,A*49
$GNRMC,100048,A,5800.792847,N,05616.849594,E,,, 200325,,,A*46
$GNRMC,100049,A,5800.792847,N,05616.849594,E,,, 200325,,,A*47
$GNRMC,100050,A,5800.792847,N,05616.849136,E,,, 200325,,,A*43
$GNRMC,100051,A,5800.792847,N,05616.849136,E,,, 200325,,,A*42
$GNRMC,100052,A,5800.792847,N,05616.849136,E,,, 200325,,,A*41
$GNRMC,100053,A,5800.792847,N,05616.849136,E,,, 200325,,,A*40
